[
    {
        "1462": {
            "twsp_mm": "မင်္ဂလာဒုံ",
            "lng": "96.12742971628906",
            "twsp_en": "Mingalardon",
            "name_mm": "ခြံပေါက်",
            "road_mm": "အမှတ်(၁)လမ်းမ",
            "lat": "17.00790905085006",
            "road_en": "No. 1 Main Road",
            "name_en": "Chan Pauk"
        },
        "1461": {
            "twsp_mm": "မင်္ဂလာဒုံ",
            "lng": "96.13338895607741",
            "twsp_en": "Mingalardon",
            "name_mm": "စီပီလိုက်",
            "road_mm": "အမှတ်(၁)လမ်းမ",
            "lat": "17.020660703118264",
            "road_en": "No. 1 Main Road",
            "name_en": "C.P Light"
        },
        "1460": {
            "twsp_mm": "မင်္ဂလာဒုံ",
            "lng": "96.13362610107289",
            "twsp_en": "Mingalardon",
            "name_mm": "စီပီလိုက်",
            "road_mm": "အမှတ်(၁)လမ်းမ",
            "lat": "17.020607344781673",
            "road_en": "No. 1 Main Road",
            "name_en": "C.P Light"
        },
        "1459": {
            "twsp_mm": "မင်္ဂလာဒုံ",
            "lng": "96.14767743973063",
            "twsp_en": "Mingalardon",
            "name_mm": "ရခိုင်ကျောင်း",
            "road_mm": "အမှတ်(၃)လမ်းမ",
            "lat": "16.97495342850686",
            "road_en": "No. 3 Main Road",
            "name_en": "Yakhine Kyaung"
        },
        "1458": {
            "twsp_mm": "မင်္ဂလာဒုံ",
            "lng": "96.14780878415333",
            "twsp_en": "Mingalardon",
            "name_mm": "ရခိုင်ကျောင်း",
            "road_mm": "အမှတ်(၃)လမ်းမ",
            "lat": "16.97398622826001",
            "road_en": "No. 3 Main Road",
            "name_en": "Yakhine Kyaung"
        },
        "1457": {
            "twsp_mm": "မင်္ဂလာဒုံ",
            "lng": "96.14648593124004",
            "twsp_en": "Mingalardon",
            "name_mm": "သုံးသုံးလုံး",
            "road_mm": "အမှတ်(၃)လမ်းမ",
            "lat": "16.9840053947385",
            "road_en": "No. 3 Main Road",
            "name_en": "Thone Thone Lone"
        },
        "1456": {
            "twsp_mm": "မင်္ဂလာဒုံ",
            "lng": "96.14639010513204",
            "twsp_en": "Mingalardon",
            "name_mm": "သုံးသုံးလုံး",
            "road_mm": "အမှတ်(၃)လမ်းမ",
            "lat": "16.983855108387846",
            "road_en": "No. 3 Main Road",
            "name_en": "Thone Thone Lone"
        },
        "1455": {
            "twsp_mm": "မင်္ဂလာဒုံ",
            "lng": "96.14758217940107",
            "twsp_en": "Mingalardon",
            "name_mm": "တံတားဖြူ",
            "road_mm": "အမှတ်(၃)လမ်းမ",
            "lat": "16.97742721301432",
            "road_en": "No. 3 Main Road",
            "name_en": "Tadar Phyu"
        },
        "1454": {
            "twsp_mm": "မင်္ဂလာဒုံ",
            "lng": "96.1477044085041",
            "twsp_en": "Mingalardon",
            "name_mm": "တံတားဖြူ",
            "road_mm": "အမှတ်(၃)လမ်းမ",
            "lat": "16.97733137431306",
            "road_en": "No. 3 Main Road",
            "name_en": "Tadar Phyu"
        },
        "1453": {
            "twsp_mm": "မင်္ဂလာဒုံ",
            "lng": "96.1472080112435",
            "twsp_en": "Mingalardon",
            "name_mm": "ပုလဲလမ်းဆုံ",
            "road_mm": "အမှတ်(၃)လမ်းမ",
            "lat": "16.981894240252835",
            "road_en": "No. 3 Main Road",
            "name_en": "Palae Lan Sone"
        },
        "1452": {
            "twsp_mm": "မင်္ဂလာဒုံ",
            "lng": "96.14711069734767",
            "twsp_en": "Mingalardon",
            "name_mm": "ပုလဲလမ်းဆုံ",
            "road_mm": "အမှတ်(၃)လမ်းမ",
            "lat": "16.98185303580901",
            "road_en": "No. 3 Main Road",
            "name_en": "Palae Lan Sone"
        },
        "1473": {
            "twsp_mm": "မင်္ဂလာဒုံ",
            "lng": "96.12716292031111",
            "twsp_en": "Mingalardon",
            "name_mm": "မွေးမြူရေး",
            "road_mm": "အမှတ်(၁)လမ်းမ",
            "lat": "17.013881748309583",
            "road_en": "No. 1 Main Road",
            "name_en": "Mwae Myu Yae"
        },
        "1472": {
            "twsp_mm": "မင်္ဂလာဒုံ",
            "lng": "96.12733674002813",
            "twsp_en": "Mingalardon",
            "name_mm": "မွေးမြူရေး",
            "road_mm": "အမှတ်(၁)လမ်းမ",
            "lat": "17.01383916829909",
            "road_en": "No. 1 Main Road",
            "name_en": "Mwae Myu Yae"
        },
        "1471": {
            "twsp_mm": "မင်္ဂလာဒုံ",
            "lng": "96.13859422272074",
            "twsp_en": "Mingalardon",
            "name_mm": "(၄) ရပ်ကွက်",
            "road_mm": "အမှတ်(၃)စက်သွယ်လမ်း",
            "lat": "17.02427883571988",
            "road_en": "No. 3 Set Thwe Road",
            "name_en": "Lay Yat Kwet"
        },
        "1470": {
            "twsp_mm": "မင်္ဂလာဒုံ",
            "lng": "96.13848494365811",
            "twsp_en": "Mingalardon",
            "name_mm": "(၄) ရပ်ကွက်",
            "road_mm": "အမှတ်(၃)စက်သွယ်လမ်း",
            "lat": "17.024106080620214",
            "road_en": "No. 3 Set Thwe Road",
            "name_en": "Lay Yat Kwet"
        },
        "1": {
            "twsp_mm": "တောင်ဒဂုံ",
            "lng": "96.222571",
            "twsp_en": "South Dagon",
            "name_mm": "နတ်စင်",
            "road_mm": "အမှတ်(၂)လမ်းမ",
            "lat": "16.868886",
            "road_en": "No. 2 Main Road",
            "name_en": "Nat Sin"
        },
        "1469": {
            "twsp_mm": "မင်္ဂလာဒုံ",
            "lng": "96.1321399686858",
            "twsp_en": "Mingalardon",
            "name_mm": "ကျောင်းရှေ့",
            "road_mm": "အမှတ်(၁)လမ်းမ",
            "lat": "17.03120950570694",
            "road_en": "No. 1 Main Road",
            "name_en": "Kyaung Shae"
        },
        "2": {
            "twsp_mm": "တောင်ဒဂုံ",
            "lng": "96.22240983881059",
            "twsp_en": "South Dagon",
            "name_mm": "နတ်စင်",
            "road_mm": "အမှတ်(၂)လမ်းမ",
            "lat": "16.869142857347608",
            "road_en": "No. 2 Main Road",
            "name_en": "Nat Sin"
        },
        "1468": {
            "twsp_mm": "မင်္ဂလာဒုံ",
            "lng": "96.13192968769",
            "twsp_en": "Mingalardon",
            "name_mm": "ကျောင်းရှေ့",
            "road_mm": "အမှတ်(၁)လမ်းမ",
            "lat": "17.03111213172036",
            "road_en": "No. 1 Main Road",
            "name_en": "Kyaung Shae"
        },
        "3": {
            "twsp_mm": "မြောက်ဒဂုံ",
            "lng": "96.20009702397512",
            "twsp_en": "North Dagon",
            "name_mm": "ဂိတ်ဟောင်း",
            "road_mm": "ဗိုလ်မှူးဗထူးလမ်း",
            "lat": "16.902381492570843",
            "road_en": "Bo Hmu Ba Htoo Road",
            "name_en": "Gate Haung"
        },
        "1467": {
            "twsp_mm": "မင်္ဂလာဒုံ",
            "lng": "96.128899",
            "twsp_en": "Mingalardon",
            "name_mm": "ကုန်းထိပ်",
            "road_mm": "အမှတ်(၁)လမ်းမ",
            "lat": "17.004467",
            "road_en": "No. 1 Main Road",
            "name_en": "Kone Htate"
        },
        "4": {
            "twsp_mm": "မြောက်ဒဂုံ",
            "lng": "96.2000420386903",
            "twsp_en": "North Dagon",
            "name_mm": "ဂိတ်ဟောင်း",
            "road_mm": "ဗိုလ်မှူးဗထူးလမ်း",
            "lat": "16.902475765502334",
            "road_en": "Bo Hmu Ba Htoo Road",
            "name_en": "Gate Haung"
        },
        "1466": {
            "twsp_mm": "မင်္ဂလာဒုံ",
            "lng": "96.129039",
            "twsp_en": "Mingalardon",
            "name_mm": "ကုန်းထိပ်",
            "road_mm": "အမှတ်(၁)လမ်းမ",
            "lat": "17.004641",
            "road_en": "No. 1 Main Road",
            "name_en": "Kone Htate"
        },
        "5": {
            "twsp_mm": "မြောက်ဒဂုံ",
            "lng": "96.211413",
            "twsp_en": "North Dagon",
            "name_mm": "(၁၀) မိုင်",
            "road_mm": "ဒဂုံတက္ကသိုလ်",
            "lat": "16.91305",
            "road_en": "Dagon University",
            "name_en": "Sal Mile"
        },
        "1465": {
            "twsp_mm": "မင်္ဂလာဒုံ",
            "lng": "96.14459206117319",
            "twsp_en": "Mingalardon",
            "name_mm": "ကုန်းတလပေါင်",
            "road_mm": "အမှတ်(၃)လမ်းမ",
            "lat": "17.000718633818547",
            "road_en": "No. 3 Main Road",
            "name_en": "Kon Ta La Paung"
        },
        "6": {
            "twsp_mm": "ရန်ကင်း",
            "lng": "96.16340025560933",
            "twsp_en": "Yankin",
            "name_mm": "(၁၂) လုံးတန်း",
            "road_mm": "ရန်ကင်းလမ်း",
            "lat": "16.83090737715405",
            "road_en": "Yankin Road",
            "name_en": "Sae-hnat-lone-Tan"
        },
        "1464": {
            "twsp_mm": "မင်္ဂလာဒုံ",
            "lng": "96.1444505536929",
            "twsp_en": "Mingalardon",
            "name_mm": "ကုန်းတလပေါင်",
            "road_mm": "အမှတ်(၃)လမ်းမ",
            "lat": "17.00055297085431",
            "road_en": "No. 3 Main Road",
            "name_en": "Kon Ta La Paung"
        },
        "7": {
            "twsp_mm": "ရန်ကင်း",
            "lng": "96.1635034158826",
            "twsp_en": "Yankin",
            "name_mm": "(၁၂) လုံးတန်း",
            "road_mm": "ရန်ကင်းလမ်း",
            "lat": "16.830835378709462",
            "road_en": "Yankin Road",
            "name_en": "Sae-hnat-lone-Tan"
        },
        "1463": {
            "twsp_mm": "မင်္ဂလာဒုံ",
            "lng": "96.12727372907105",
            "twsp_en": "Mingalardon",
            "name_mm": "ခြံပေါက်",
            "road_mm": "အမှတ်(၁)လမ်းမ",
            "lat": "17.008303444034432",
            "road_en": "No. 1 Main Road",
            "name_en": "Chan Pauk"
        },
        "1000": {
            "twsp_mm": "မြောက်ဒဂုံ",
            "lng": "96.1899874219671",
            "twsp_en": "North Dagon",
            "name_mm": "ဆက်သွယ်ရေး",
            "road_mm": "ပင်လုံလမ်း",
            "lat": "16.86960203209668",
            "road_en": "Pin Lon Road",
            "name_en": "Settwe Yae"
        },
        "1484": {
            "twsp_mm": "မင်္ဂလာဒုံ",
            "lng": "96.127278",
            "twsp_en": "Mingalardon",
            "name_mm": "ရေစင်",
            "road_mm": "အမှတ်(၁)လမ်းမ",
            "lat": "17.010048",
            "road_en": "No. 1 Main Road",
            "name_en": "Yae Sin"
        },
        "2331": {
            "twsp_mm": "ကမာရွတ်",
            "lng": "96.13846",
            "twsp_en": "Kamayut",
            "name_mm": "ကျောင်းလမ်း",
            "road_mm": "တက္ကသိုလ်ရိပ်သာလမ်း",
            "lat": "16.825918",
            "road_en": "University Avenue Road",
            "name_en": "Kyuanlan"
        },
        "1483": {
            "twsp_mm": "မင်္ဂလာဒုံ",
            "lng": "96.14460656186569",
            "twsp_en": "Mingalardon",
            "name_mm": "ရေစက်",
            "road_mm": "အမှတ်(၃)လမ်းမ",
            "lat": "17.006413366966736",
            "road_en": "No. 3 Main Road",
            "name_en": "Yae Set"
        },
        "1482": {
            "twsp_mm": "မင်္ဂလာဒုံ",
            "lng": "96.14474930567668",
            "twsp_en": "Mingalardon",
            "name_mm": "ရေစက်",
            "road_mm": "အမှတ်(၃)လမ်းမ",
            "lat": "17.00632964630908",
            "road_en": "No. 3 Main Road",
            "name_en": "Yae Set"
        },
        "1481": {
            "twsp_mm": "မင်္ဂလာဒုံ",
            "lng": "96.14260148489849",
            "twsp_en": "Mingalardon",
            "name_mm": "ဝါးဆိုင်",
            "road_mm": "အမှတ်(၃)စက်သွယ်လမ်း",
            "lat": "17.020083598739554",
            "road_en": "No. 3 Set Thwe Road",
            "name_en": "War Saing"
        },
        "1480": {
            "twsp_mm": "မင်္ဂလာဒုံ",
            "lng": "96.14288131473587",
            "twsp_en": "Mingalardon",
            "name_mm": "ဝါးဆိုင်",
            "road_mm": "အမှတ်(၃)စက်သွယ်လမ်း",
            "lat": "17.019923663449635",
            "road_en": "No. 3 Set Thwe Road",
            "name_en": "War Saing"
        },
        "2327": {
            "twsp_mm": "ဗဟန်း",
            "lng": "96.145139",
            "twsp_en": "Bahan",
            "name_mm": "သံလွင်",
            "road_mm": "တက္ကသိုလ်ရိပ်သာလမ်း",
            "lat": "16.824228",
            "road_en": "University Avenue Road",
            "name_en": "Thanlwin"
        },
        "1479": {
            "twsp_mm": "မင်္ဂလာဒုံ",
            "lng": "96.14445503801109",
            "twsp_en": "Mingalardon",
            "name_mm": "တပ်ရင်း (၉)",
            "road_mm": "အမှတ်(၃)လမ်းမ",
            "lat": "17.003502559285785",
            "road_en": "No. 3 Main Road",
            "name_en": "Tat Yin Koe"
        },
        "1478": {
            "twsp_mm": "မင်္ဂလာဒုံ",
            "lng": "96.144294",
            "twsp_en": "Mingalardon",
            "name_mm": "တပ်ရင်း (၉)",
            "road_mm": "အမှတ်(၃)လမ်းမ",
            "lat": "17.002538",
            "road_en": "No. 3 Main Road",
            "name_en": "Tat Yin Koe"
        },
        "2325": {
            "twsp_mm": "ဗဟန်း",
            "lng": "96.1472372012213",
            "twsp_en": "Bahan",
            "name_mm": "အင်ယာမြိုင်",
            "road_mm": "တက္ကသိုလ်ရိပ်သာလမ်း",
            "lat": "16.8248228559485",
            "road_en": "University Avenue Road",
            "name_en": "Inya Myaing"
        },
        "1477": {
            "twsp_mm": "မင်္ဂလာဒုံ",
            "lng": "96.145109",
            "twsp_en": "Mingalardon",
            "name_mm": "ဆိုက်သစ်",
            "road_mm": "အမှတ်(၃)စက်သွယ်လမ်း",
            "lat": "17.015301",
            "road_en": "No. 3 Set Thwe Road",
            "name_en": "Site Thit"
        },
        "1476": {
            "twsp_mm": "မင်္ဂလာဒုံ",
            "lng": "96.14532354986298",
            "twsp_en": "Mingalardon",
            "name_mm": "ဆိုက်သစ်",
            "road_mm": "အမှတ်(၃)စက်သွယ်လမ်း",
            "lat": "17.01509444298104",
            "road_en": "No. 3 Set Thwe Road",
            "name_en": "Site Thit"
        },
        "2323": {
            "twsp_mm": "ဗဟန်း",
            "lng": "96.15304296836257",
            "twsp_en": "Bahan",
            "name_mm": "ကုက္ကိုင်း",
            "road_mm": "တက္ကသိုလ်ရိပ်သာလမ်း",
            "lat": "16.823558610330995",
            "road_en": "University Avenue Road",
            "name_en": "Koke Kine"
        },
        "1475": {
            "twsp_mm": "မင်္ဂလာဒုံ",
            "lng": "96.128565",
            "twsp_en": "Mingalardon",
            "name_mm": "ဆေးဂဲလ်",
            "road_mm": "အမှတ်(၁)လမ်းမ",
            "lat": "17.01645",
            "road_en": "No. 1 Main Road",
            "name_en": "Seagull"
        },
        "1474": {
            "twsp_mm": "မင်္ဂလာဒုံ",
            "lng": "96.12807133002208",
            "twsp_en": "Mingalardon",
            "name_mm": "ဆေးဂဲလ်",
            "road_mm": "အမှတ်(၁)လမ်းမ",
            "lat": "17.01631133764975",
            "road_en": "No. 1 Main Road",
            "name_en": "Seagull"
        },
        "2329": {
            "twsp_mm": "ဗဟန်း",
            "lng": "96.142044",
            "twsp_en": "Bahan",
            "name_mm": "ယူအပ်ဖ်အယ်",
            "road_mm": "တက္ကသိုလ်ရိပ်သာလမ်း",
            "lat": "16.825133",
            "road_en": "University Avenue Road",
            "name_en": "UFL"
        },
        "1011": {
            "twsp_mm": "တောင်ဒဂုံ",
            "lng": "96.227658",
            "twsp_en": "South Dagon",
            "name_mm": "လေကျောင်း",
            "road_mm": "အမှတ်(၂)လမ်းမ",
            "lat": "16.874543",
            "road_en": "No. 2 Main Road",
            "name_en": "Lay Kyaung"
        },
        "1495": {
            "twsp_mm": "ရွှေပြည်သာ",
            "lng": "96.0945617593825",
            "twsp_en": "Shwe Pyithar",
            "name_mm": "သံဖြူ",
            "road_mm": "အမှတ်(၄)လမ်းမ",
            "lat": "16.972031450019877",
            "road_en": "No. 4 Main Road",
            "name_en": "Than Phyu"
        },
        "2342": {
            "twsp_mm": "လှည်းကူး",
            "lng": "96.225736",
            "twsp_en": "Hlegu",
            "name_mm": "လှည်းကူးတာဆုံ",
            "road_mm": "အမှတ်(၁)လမ်းမ",
            "lat": "17.099458",
            "road_en": "No. 1 Main Road",
            "name_en": "Hlegu Tar Sone"
        },
        "1010": {
            "twsp_mm": "မြောက်ဒဂုံ",
            "lng": "96.20901987422258",
            "twsp_en": "North Dagon",
            "name_mm": "တံတားထိပ်",
            "road_mm": "ပြည်ထောင်စုလမ်းမကြီး",
            "lat": "16.866145520536634",
            "road_en": "Pyi Htaung Su Main Road",
            "name_en": "Tadar Htate"
        },
        "1494": {
            "twsp_mm": "ရွှေပြည်သာ",
            "lng": "96.09499946236612",
            "twsp_en": "Shwe Pyithar",
            "name_mm": "သံဖြူ",
            "road_mm": "အမှတ်(၄)လမ်းမ",
            "lat": "16.971547071368082",
            "road_en": "No. 4 Main Road",
            "name_en": "Than Phyu"
        },
        "2341": {
            "twsp_mm": "ဗဟန်း",
            "lng": "96.1522226314992",
            "twsp_en": "Bahan",
            "name_mm": "ကုက္ကိုင်း",
            "road_mm": "တက္ကသိုလ်ရိပ်သာလမ်း",
            "lat": "16.823771625176313",
            "road_en": "University Avenue Road",
            "name_en": "Koke Kine"
        },
        "1493": {
            "twsp_mm": "ရွှေပြည်သာ",
            "lng": "96.092581",
            "twsp_en": "Shwe Pyithar",
            "name_mm": "သဘာဝ",
            "road_mm": "အမှတ်(၄)လမ်းမ",
            "lat": "16.988871",
            "road_en": "No. 4 Main Road",
            "name_en": "Thabarwa"
        },
        "1492": {
            "twsp_mm": "ရွှေပြည်သာ",
            "lng": "96.092881",
            "twsp_en": "Shwe Pyithar",
            "name_mm": "သဘာဝ",
            "road_mm": "အမှတ်(၄)လမ်းမ",
            "lat": "16.988892",
            "road_en": "No. 4 Main Road",
            "name_en": "Thabarwa"
        },
        "1491": {
            "twsp_mm": "ရွှေပြည်သာ",
            "lng": "96.09351490158589",
            "twsp_en": "Shwe Pyithar",
            "name_mm": "ပုည",
            "road_mm": "အမှတ်(၄)လမ်းမ",
            "lat": "16.97908187590623",
            "road_en": "No. 4 Main Road",
            "name_en": "Ponnya"
        },
        "1490": {
            "twsp_mm": "ရွှေပြည်သာ",
            "lng": "96.0937109333463",
            "twsp_en": "Shwe Pyithar",
            "name_mm": "ပုည",
            "road_mm": "အမှတ်(၄)လမ်းမ",
            "lat": "16.97904652292607",
            "road_en": "No. 4 Main Road",
            "name_en": "Ponnya"
        },
        "1008": {
            "twsp_mm": "မြောက်ဒဂုံ",
            "lng": "96.2043057032861",
            "twsp_en": "North Dagon",
            "name_mm": "မဝတ",
            "road_mm": "ပြည်ထောင်စုလမ်းမကြီး",
            "lat": "16.87735960653568",
            "road_en": "Pyi Htaung Su Main Road",
            "name_en": "Ma Wa Ta"
        },
        "2339": {
            "twsp_mm": "ဗဟန်း",
            "lng": "96.14719382487239",
            "twsp_en": "Bahan",
            "name_mm": "အင်ယာမြိုင်",
            "road_mm": "တက္ကသိုလ်ရိပ်သာလမ်း",
            "lat": "16.824615418351883",
            "road_en": "University Avenue Road",
            "name_en": "Inya Myaing"
        },
        "1007": {
            "twsp_mm": "မြောက်ဒဂုံ",
            "lng": "96.20740002952516",
            "twsp_en": "North Dagon",
            "name_mm": "ကပရ",
            "road_mm": "ပြည်ထောင်စုလမ်းမကြီး",
            "lat": "16.86995660937107",
            "road_en": "Pyi Htaung Su Main Road",
            "name_en": "Ka Pa Ya"
        },
        "1006": {
            "twsp_mm": "မြောက်ဒဂုံ",
            "lng": "96.20631312718616",
            "twsp_en": "North Dagon",
            "name_mm": "အားကစားကွင်း",
            "road_mm": "ပြည်ထောင်စုလမ်းမကြီး",
            "lat": "16.872657507025735",
            "road_en": "Pyi Htaung Su Main Road",
            "name_en": "Arr Kasar Kwin"
        },
        "2337": {
            "twsp_mm": "ဗဟန်း",
            "lng": "96.14524126052858",
            "twsp_en": "Bahan",
            "name_mm": "သံလွင်",
            "road_mm": "တက္ကသိုလ်ရိပ်သာလမ်း",
            "lat": "16.82406009744107",
            "road_en": "University Avenue Road",
            "name_en": "Thanlwin"
        },
        "1005": {
            "twsp_mm": "မြောက်ဒဂုံ",
            "lng": "96.20245808037",
            "twsp_en": "North Dagon",
            "name_mm": "စွမ်းအင်",
            "road_mm": "ပြည်ထောင်စုလမ်းမကြီး",
            "lat": "16.88079154992208",
            "road_en": "Pyi Htaung Su Main Road",
            "name_en": "Swan In"
        },
        "1489": {
            "twsp_mm": "ရွှေပြည်သာ",
            "lng": "96.09422648325565",
            "twsp_en": "Shwe Pyithar",
            "name_mm": "အုတ်ဖို",
            "road_mm": "အမှတ်(၄)လမ်းမ",
            "lat": "16.974234226742837",
            "road_en": "No. 4 Main Road",
            "name_en": "Oak Pho"
        },
        "1004": {
            "twsp_mm": "မြောက်ဒဂုံ",
            "lng": "96.202354375273",
            "twsp_en": "North Dagon",
            "name_mm": "စွမ်းအင်",
            "road_mm": "ပြည်ထောင်စုလမ်းမကြီး",
            "lat": "16.88080835336168",
            "road_en": "Pyi Htaung Su Main Road",
            "name_en": "Swan In"
        },
        "1488": {
            "twsp_mm": "ရွှေပြည်သာ",
            "lng": "96.09446526272224",
            "twsp_en": "Shwe Pyithar",
            "name_mm": "အုတ်ဖို",
            "road_mm": "အမှတ်(၄)လမ်းမ",
            "lat": "16.973700470429442",
            "road_en": "No. 4 Main Road",
            "name_en": "Oak Pho"
        },
        "2335": {
            "twsp_mm": "ဗဟန်း",
            "lng": "96.142351",
            "twsp_en": "Bahan",
            "name_mm": "ယူအပ်ဖ်အယ်",
            "road_mm": "တက္ကသိုလ်ရိပ်သာလမ်း",
            "lat": "16.825153",
            "road_en": "University Avenue Road",
            "name_en": "UFL"
        },
        "1003": {
            "twsp_mm": "မြောက်ဒဂုံ",
            "lng": "96.19630813132972",
            "twsp_en": "North Dagon",
            "name_mm": "စစ်တောင်းလမ်း",
            "road_mm": "ပင်လုံလမ်း",
            "lat": "16.872970930494294",
            "road_en": "Pin Lon Road",
            "name_en": "Sittaung Lan"
        },
        "1487": {
            "twsp_mm": "ထောက်ကြန့်",
            "lng": "96.131818",
            "twsp_en": "Htauk Kyant",
            "name_mm": "ထောက်ကြန့်လမ်းဆုံ",
            "road_mm": "အမှတ်(၂)လမ်းမ",
            "lat": "17.04265",
            "road_en": "No. 2 Main Road",
            "name_en": "Htauk Kyant Lan Sone"
        },
        "1002": {
            "twsp_mm": "မြောက်ဒဂုံ",
            "lng": "96.196371",
            "twsp_en": "North Dagon",
            "name_mm": "စစ်တောင်းလမ်း",
            "road_mm": "ပင်လုံလမ်း",
            "lat": "16.872829",
            "road_en": "Pin Lon Road",
            "name_en": "Sittaung Lan"
        },
        "1486": {
            "twsp_mm": "ထောက်ကြန့်",
            "lng": "96.131957",
            "twsp_en": "Htauk Kyant",
            "name_mm": "ထောက်ကြန့်လမ်းဆုံ",
            "road_mm": "အမှတ်(၂)လမ်းမ",
            "lat": "17.042732",
            "road_en": "No. 2 Main Road",
            "name_en": "Htauk Kyant Lan Sone"
        },
        "2333": {
            "twsp_mm": "ကမာရွတ်",
            "lng": "96.138751",
            "twsp_en": "Kamayut",
            "name_mm": "ကျောင်းလမ်း",
            "road_mm": "တက္ကသိုလ်ရိပ်သာလမ်း",
            "lat": "16.825767",
            "road_en": "University Avenue Road",
            "name_en": "Kyuanlan"
        },
        "1001": {
            "twsp_mm": "မြောက်ဒဂုံ",
            "lng": "96.19017253629865",
            "twsp_en": "North Dagon",
            "name_mm": "ဆက်သွယ်ရေး",
            "road_mm": "ပင်လုံလမ်း",
            "lat": "16.86985558238827",
            "road_en": "Pin Lon Road",
            "name_en": "Settwe Yae"
        },
        "1485": {
            "twsp_mm": "မင်္ဂလာဒုံ",
            "lng": "96.12759752199057",
            "twsp_en": "Mingalardon",
            "name_mm": "ရေစင်",
            "road_mm": "အမှတ်(၁)လမ်းမ",
            "lat": "17.010217387377494",
            "road_en": "No. 1 Main Road",
            "name_en": "Yae Sin"
        },
        "1009": {
            "twsp_mm": "မြောက်ဒဂုံ",
            "lng": "96.20422358158977",
            "twsp_en": "North Dagon",
            "name_mm": "မဝတ",
            "road_mm": "ပင်လုံလမ်း",
            "lat": "16.876962612612097",
            "road_en": "Pin Lon Road",
            "name_en": "Ma Wa Ta"
        },
        "1022": {
            "twsp_mm": "မြောက်ဒဂုံ",
            "lng": "96.19267880916595",
            "twsp_en": "North Dagon",
            "name_mm": "(၄၆) လမ်းဆုံ",
            "road_mm": "ဗိုလ်မှူးဗထူးလမ်း",
            "lat": "16.89865079694834",
            "road_en": "Bo Hmu Ba Htoo Road",
            "name_en": "Lay-sae-chauk Lan Sone"
        },
        "1021": {
            "twsp_mm": "မြောက်ဒဂုံ",
            "lng": "96.1924754222855",
            "twsp_en": "North Dagon",
            "name_mm": "(၄၆) လမ်းဆုံ",
            "road_mm": "ဗိုလ်မှူးဗထူးလမ်း",
            "lat": "16.898454928978115",
            "road_en": "Bo Hmu Ba Htoo Road",
            "name_en": "Lay-sae-chauk Lan Sone"
        },
        "2352": {
            "twsp_mm": "တောင်ဥက္ကလာပ",
            "lng": "96.17608593078333",
            "twsp_en": "South Okkalapa",
            "name_mm": "ပင်းယ",
            "road_mm": "ပါရမီလမ်း",
            "lat": "16.85950512390363",
            "road_en": "Parami Road",
            "name_en": "Pinya"
        },
        "1020": {
            "twsp_mm": "မြောက်ဒဂုံ",
            "lng": "96.19247929891573",
            "twsp_en": "North Dagon",
            "name_mm": "(၄၆) မှတ်တိုင်",
            "road_mm": "ပြည်ထောင်စုလမ်းမကြီး",
            "lat": "16.898700981942675",
            "road_en": "Pyi Htaung Su Main Road",
            "name_en": "Lay-sae-chauk Hmat Taing"
        },
        "2351": {
            "twsp_mm": "လှိုင်သာယာ",
            "lng": "96.02406488265842",
            "twsp_en": "Hlaing Tharyar",
            "name_mm": "ဒဂုံဧရာအဝေးပြေး",
            "road_mm": "အမှတ်(၅)လမ်းမ",
            "lat": "16.87796967376101",
            "road_en": "No. 5 Main Road",
            "name_en": "Dagon Ayar A Way Pyay"
        },
        "2350": {
            "twsp_mm": "မြောက်ဒဂုံ",
            "lng": "96.19597513927147",
            "twsp_en": "North Dagon",
            "name_mm": "(၇\/၈) လမ်းဆုံ",
            "road_mm": "ပြည်ထောင်စုလမ်းမကြီး",
            "lat": "16.892272422091686",
            "road_en": "Pyi Htaung Su Main Road",
            "name_en": "Khun\/ Shit Lan Sone"
        },
        "1019": {
            "twsp_mm": "မြောက်ဒဂုံ",
            "lng": "96.19273792253809",
            "twsp_en": "North Dagon",
            "name_mm": "(၄၆) မှတ်တိုင်",
            "road_mm": "ပြည်ထောင်စုလမ်းမကြီး",
            "lat": "16.898430708623312",
            "road_en": "Pyi Htaung Su Main Road",
            "name_en": "Lay-sae-chauk Hmat Taing"
        },
        "1018": {
            "twsp_mm": "မြောက်ဒဂုံ",
            "lng": "96.18976978585125",
            "twsp_en": "North Dagon",
            "name_mm": "အအေးဆိုင်",
            "road_mm": "ပြည်ထောင်စုလမ်းမကြီး",
            "lat": "16.903535981868796",
            "road_en": "Pyi Htaung Su Main Road",
            "name_en": "A Aye Saing"
        },
        "2349": {
            "twsp_mm": "မြောက်ဒဂုံ",
            "lng": "96.20897377375516",
            "twsp_en": "North Dagon",
            "name_mm": "တံတားထိပ်",
            "road_mm": "ပြည်ထောင်စုလမ်းမကြီး",
            "lat": "16.866103428460274",
            "road_en": "Pyi Htaung Su Main Road",
            "name_en": "Tadar Htate"
        },
        "1017": {
            "twsp_mm": "မြောက်ဒဂုံ",
            "lng": "96.19003197178246",
            "twsp_en": "North Dagon",
            "name_mm": "အအေးဆိုင်",
            "road_mm": "ပြည်ထောင်စုလမ်းမကြီး",
            "lat": "16.90321513071059",
            "road_en": "Pyi Htaung Su Main Road",
            "name_en": "A Aye Saing"
        },
        "2348": {
            "twsp_mm": "မြောက်ဒဂုံ",
            "lng": "96.20748372282834",
            "twsp_en": "North Dagon",
            "name_mm": "ကပရ",
            "road_mm": "ပြည်ထောင်စုလမ်းမကြီး",
            "lat": "16.86995237819045",
            "road_en": "Pyi Htaung Su Main Road",
            "name_en": "Ka Pa Ya"
        },
        "1016": {
            "twsp_mm": "တောင်ဒဂုံ",
            "lng": "96.2248954921961",
            "twsp_en": "South Dagon",
            "name_mm": "သင်တန်းကျောင်း",
            "road_mm": "အမှတ်(၂)လမ်းမ",
            "lat": "16.871297828689613",
            "road_en": "No. 2 Main Road",
            "name_en": "Thin Tan Kyaung"
        },
        "2347": {
            "twsp_mm": "မြောက်ဒဂုံ",
            "lng": "96.20636325096713",
            "twsp_en": "North Dagon",
            "name_mm": "အားကစားကွင်း",
            "road_mm": "ပြည်ထောင်စုလမ်းမကြီး",
            "lat": "16.872685841491208",
            "road_en": "Pyi Htaung Su Main Road",
            "name_en": "Arr Kasar Kwin"
        },
        "1015": {
            "twsp_mm": "တောင်ဒဂုံ",
            "lng": "96.225125",
            "twsp_en": "South Dagon",
            "name_mm": "သင်တန်းကျောင်း",
            "road_mm": "အမှတ်(၂)လမ်းမ",
            "lat": "16.871166",
            "road_en": "No. 2 Main Road",
            "name_en": "Thin Tan Kyaung"
        },
        "1499": {
            "twsp_mm": "ရွှေပြည်သာ",
            "lng": "96.09524251660332",
            "twsp_en": "Shwe Pyithar",
            "name_mm": "ရဲ (၆)",
            "road_mm": "အမှတ်(၄)လမ်းမ",
            "lat": "16.968733249216562",
            "road_en": "No. 4 Main Road",
            "name_en": "Ye Chauk"
        },
        "2346": {
            "twsp_mm": "မြောက်ဒဂုံ",
            "lng": "96.2041931343265",
            "twsp_en": "North Dagon",
            "name_mm": "မဝတ",
            "road_mm": "ပြည်ထောင်စုလမ်းမကြီး",
            "lat": "16.877414870397843",
            "road_en": "Pyi Htaung Su Main Road",
            "name_en": "Ma Wa Ta"
        },
        "1014": {
            "twsp_mm": "တောင်ဒဂုံ",
            "lng": "96.230459",
            "twsp_en": "South Dagon",
            "name_mm": "တပ်ရင်း (၃)",
            "road_mm": "အမှတ်(၂)လမ်းမ",
            "lat": "16.878599",
            "road_en": "No. 2 Main Road",
            "name_en": "Tat Yin Thone"
        },
        "1498": {
            "twsp_mm": "ရွှေပြည်သာ",
            "lng": "96.09573139110582",
            "twsp_en": "Shwe Pyithar",
            "name_mm": "ရဲ (၆)",
            "road_mm": "အမှတ်(၄)လမ်းမ",
            "lat": "16.96787122038794",
            "road_en": "No. 4 Main Road",
            "name_en": "Ye Chauk"
        },
        "2345": {
            "twsp_mm": "တောင်ဒဂုံ",
            "lng": "96.26612567575648",
            "twsp_en": "South Dagon",
            "name_mm": "(၃၂) ဂိတ်",
            "road_mm": "ကျွန်းရွှေဝါလမ်း",
            "lat": "16.82127753126424",
            "road_en": "Kyun Shwe Wah Road",
            "name_en": "Thone-Sae-Hnit Gate"
        },
        "1013": {
            "twsp_mm": "တောင်ဒဂုံ",
            "lng": "96.230341",
            "twsp_en": "South Dagon",
            "name_mm": "တပ်ရင်း (၃)",
            "road_mm": "အမှတ်(၂)လမ်းမ",
            "lat": "16.878229",
            "road_en": "No. 2 Main Road",
            "name_en": "Tat Yin Thone"
        },
        "1497": {
            "twsp_mm": "ရွှေပြည်သာ",
            "lng": "96.09342852607371",
            "twsp_en": "Shwe Pyithar",
            "name_mm": "သာဓုကန်",
            "road_mm": "အမှတ်(၄)လမ်းမ",
            "lat": "16.983833965279114",
            "road_en": "No. 4 Main Road",
            "name_en": "Thardukan"
        },
        "2344": {
            "twsp_mm": "တောင်ဒဂုံ",
            "lng": "96.294871",
            "twsp_en": "South Dagon",
            "name_mm": "လေးထောင့်ကန် (ဆိုက်မွေး-၁)",
            "road_mm": "အမှတ်(၂)လမ်းမ",
            "lat": "16.960345",
            "road_en": "No. 2 Main Road",
            "name_en": "Lay Daung Kan (Site Mway Tit)"
        },
        "1012": {
            "twsp_mm": "တောင်ဒဂုံ",
            "lng": "96.227508",
            "twsp_en": "South Dagon",
            "name_mm": "လေကျောင်း",
            "road_mm": "အမှတ်(၂)လမ်းမ",
            "lat": "16.874656",
            "road_en": "No. 2 Main Road",
            "name_en": "Lay Kyaung"
        },
        "1496": {
            "twsp_mm": "ရွှေပြည်သာ",
            "lng": "96.09319077339023",
            "twsp_en": "Shwe Pyithar",
            "name_mm": "သာဓုကန်",
            "road_mm": "အမှတ်(၄)လမ်းမ",
            "lat": "16.98379324224211",
            "road_en": "No. 4 Main Road",
            "name_en": "Thardukan"
        },
        "2343": {
            "twsp_mm": "လှည်းကူး",
            "lng": "96.225669",
            "twsp_en": "Hlegu",
            "name_mm": "လှည်းကူးတာဆုံ",
            "road_mm": "အမှတ်(၁)လမ်းမ",
            "lat": "17.09956",
            "road_en": "No. 1 Main Road",
            "name_en": "Hlegu Tar Sone"
        },
        "1033": {
            "twsp_mm": "မြောက်ဒဂုံ",
            "lng": "96.21715528657663",
            "twsp_en": "North Dagon",
            "name_mm": "မုခ်ဝ",
            "road_mm": "မင်းရဲကျော်စွာလမ်း",
            "lat": "16.90255784827584",
            "road_en": "Min Ye Kyaw Swar Road",
            "name_en": "Moke Wa"
        },
        "2364": {
            "twsp_mm": "မြောက်ဒဂုံ",
            "lng": "96.199592",
            "twsp_en": "North Dagon",
            "name_mm": "ရွာထိပ်",
            "road_mm": "ကျန်စစ်သားလမ်း",
            "lat": "16.908304",
            "road_en": "Kyan Sit Thar Road",
            "name_en": "Ywar Htate"
        },
        "1032": {
            "twsp_mm": "မြောက်ဒဂုံ",
            "lng": "96.21724036289379",
            "twsp_en": "North Dagon",
            "name_mm": "မုခ်ဝ",
            "road_mm": "မင်းရဲကျော်စွာလမ်း",
            "lat": "16.90237856533742",
            "road_en": "Min Ye Kyaw Swar Road",
            "name_en": "Moke Wa"
        },
        "2363": {
            "twsp_mm": "မြောက်ဒဂုံ",
            "lng": "96.19982555508615",
            "twsp_en": "North Dagon",
            "name_mm": "ရွာထိပ်",
            "road_mm": "ကျန်စစ်သားလမ်း",
            "lat": "16.908442913565263",
            "road_en": "Kyan Sit Thar Road",
            "name_en": "Ywar Htate"
        },
        "1031": {
            "twsp_mm": "မြောက်ဒဂုံ",
            "lng": "96.2128589116037",
            "twsp_en": "North Dagon",
            "name_mm": "ဒဂုံတက္ကသိုလ်",
            "road_mm": "ဒဂုံတက္ကသိုလ်",
            "lat": "16.916878098620895",
            "road_en": "Dagon University",
            "name_en": "Dagon Takke Tho"
        },
        "2362": {
            "twsp_mm": "လှိုင်သာယာ",
            "lng": "96.064228",
            "twsp_en": "Hlaing Tharyar",
            "name_mm": "ရွှေလင်ပန်း",
            "road_mm": "ခရေပင်လမ်း",
            "lat": "16.919713",
            "road_en": "Khayae Pin Road",
            "name_en": "Shwe Lin Pan Lan Sone"
        },
        "1030": {
            "twsp_mm": "မြောက်ဒဂုံ",
            "lng": "96.21288942173126",
            "twsp_en": "North Dagon",
            "name_mm": "အဝိုင်း",
            "road_mm": "ဒဂုံတက္ကသိုလ်",
            "lat": "16.910663997724985",
            "road_en": "Dagon University",
            "name_en": "Awine"
        },
        "2360": {
            "twsp_mm": "မရမ်းကုန်း",
            "lng": "96.10848660464399",
            "twsp_en": "Mayangone",
            "name_mm": "ဘုရင့်နောင်လမ်းဆုံ",
            "road_mm": "ဘုရင့်နောင်လမ်း",
            "lat": "16.858690865634372",
            "road_en": "Bayint Naung Road",
            "name_en": "Bayint Naung Lan Sone"
        },
        "1029": {
            "twsp_mm": "မြောက်ဒဂုံ",
            "lng": "96.21343022212389",
            "twsp_en": "North Dagon",
            "name_mm": "အဝိုင်း",
            "road_mm": "ဒဂုံတက္ကသိုလ်",
            "lat": "16.91038259448227",
            "road_en": "Dagon University",
            "name_en": "Awine"
        },
        "1028": {
            "twsp_mm": "မြောက်ဒဂုံ",
            "lng": "96.19800936430694",
            "twsp_en": "North Dagon",
            "name_mm": "ဈေးလေး",
            "road_mm": "ဗိုလ်မှူးဗထူးလမ်း",
            "lat": "16.901389338284496",
            "road_en": "Bo Hmu Ba Htoo Road",
            "name_en": "Zay Lay"
        },
        "2359": {
            "twsp_mm": "မြောက်ဥက္ကလာပ",
            "lng": "96.16597796324643",
            "twsp_en": "North Okkalapa",
            "name_mm": "ကန်သာယာ",
            "road_mm": "ခေမာသီလမ်း",
            "lat": "16.91302318931679",
            "road_en": "Khaymarthi Road",
            "name_en": "Kan Tharyar"
        },
        "1027": {
            "twsp_mm": "မြောက်ဒဂုံ",
            "lng": "96.19791846256705",
            "twsp_en": "North Dagon",
            "name_mm": "ဈေးလေး",
            "road_mm": "ဗိုလ်မှူးဗထူးလမ်း",
            "lat": "16.90128648355544",
            "road_en": "Bo Hmu Ba Htoo Road",
            "name_en": "Zay Lay"
        },
        "2358": {
            "twsp_mm": "ရွှေပြည်သာ",
            "lng": "96.09628807520495",
            "twsp_en": "Shwe Pyithar",
            "name_mm": "ရွှေပြည်သာကွေ့",
            "road_mm": "ဗိုလ်ချုပ်အောင်ဆန်းလမ်း",
            "lat": "16.961032251324756",
            "road_en": "Bogyoke Aung San Road",
            "name_en": "Shwe Pyi Thar Kwae"
        },
        "1026": {
            "twsp_mm": "မြောက်ဒဂုံ",
            "lng": "96.19650527369231",
            "twsp_en": "North Dagon",
            "name_mm": "စိန်ပန်း",
            "road_mm": "ဗိုလ်မှူးဗထူးလမ်း",
            "lat": "16.900613455358943",
            "road_en": "Bo Hmu Ba Htoo Road",
            "name_en": "Sein Pan"
        },
        "2357": {
            "twsp_mm": "ရွှေပြည်သာ",
            "lng": "96.09623822383584",
            "twsp_en": "Shwe Pyithar",
            "name_mm": "ရွှေပြည်သာကွေ့",
            "road_mm": "ဗိုလ်ချုပ်အောင်ဆန်းလမ်း",
            "lat": "16.961113306399586",
            "road_en": "Bogyoke Aung San Road",
            "name_en": "Shwe Pyi Thar Kwae"
        },
        "1025": {
            "twsp_mm": "မြောက်ဒဂုံ",
            "lng": "96.19646237930283",
            "twsp_en": "North Dagon",
            "name_mm": "စိန်ပန်း",
            "road_mm": "ဗိုလ်မှူးဗထူးလမ်း",
            "lat": "16.900506169213482",
            "road_en": "Bo Hmu Ba Htoo Road",
            "name_en": "Sein Pan"
        },
        "2356": {
            "twsp_mm": "လသာ",
            "lng": "96.15123803028838",
            "twsp_en": "Latha",
            "name_mm": "လသာ",
            "road_mm": "ကမ်းနားလမ်း",
            "lat": "16.7719965260337",
            "road_en": "Strand Road",
            "name_en": "Latha"
        },
        "600": {
            "twsp_mm": "သင်္ဃန်းကျွန်း",
            "lng": "96.19653980713338",
            "twsp_en": "Thingangyun",
            "name_mm": "ဘဝမြင့်",
            "road_mm": "ရတနာလမ်း",
            "lat": "16.842046163467096",
            "road_en": "Yadanar Road",
            "name_en": "Bawa Myint"
        },
        "1024": {
            "twsp_mm": "မြောက်ဒဂုံ",
            "lng": "96.19098746683451",
            "twsp_en": "North Dagon",
            "name_mm": "မြဝတီ",
            "road_mm": "ပြည်ထောင်စုလမ်းမကြီး",
            "lat": "16.90149321548901",
            "road_en": "Pyi Htaung Su Main Road",
            "name_en": "Myawaddy"
        },
        "2355": {
            "twsp_mm": "လသာ",
            "lng": "96.14656127014314",
            "twsp_en": "Latha",
            "name_mm": "ညောင်ပင်လေးဈေး",
            "road_mm": "ကမ်းနားလမ်း",
            "lat": "16.772377254481317",
            "road_en": "Strand Road",
            "name_en": "Nyaung Pin Lay Zay"
        },
        "601": {
            "twsp_mm": "သင်္ဃန်းကျွန်း",
            "lng": "96.19507358176634",
            "twsp_en": "Thingangyun",
            "name_mm": "ဘီအိုစီ",
            "road_mm": "လေးထောင့်ကန်လမ်း",
            "lat": "16.832662314235495",
            "road_en": "Lay Daung Kan Road",
            "name_en": "B.O.C"
        },
        "1023": {
            "twsp_mm": "မြောက်ဒဂုံ",
            "lng": "96.19089308660477",
            "twsp_en": "North Dagon",
            "name_mm": "မြဝတီ",
            "road_mm": "ပြည်ထောင်စုလမ်းမကြီး",
            "lat": "16.901471561878427",
            "road_en": "Pyi Htaung Su Main Road",
            "name_en": "Myawaddy"
        },
        "2354": {
            "twsp_mm": "လမ်းမတော်",
            "lng": "96.13934765104207",
            "twsp_en": "Lanmadaw",
            "name_mm": "ကီလီ",
            "road_mm": "ကမ်းနားလမ်း",
            "lat": "16.774839997078754",
            "road_en": "Strand Road",
            "name_en": "Kili"
        },
        "602": {
            "twsp_mm": "သင်္ဃန်းကျွန်း",
            "lng": "96.1950981616974",
            "twsp_en": "Thingangyun",
            "name_mm": "ဘီအိုစီ",
            "road_mm": "လေးထောင့်ကန်လမ်း",
            "lat": "16.83286665425466",
            "road_en": "Lay Daung Kan Road",
            "name_en": "B.O.C"
        },
        "605": {
            "twsp_mm": "တောင်ဥက္ကလာပ",
            "lng": "96.19297112803909",
            "twsp_en": "South Okkalapa",
            "name_mm": "ဂိတ်ဟောင်း",
            "road_mm": "ရတနာလမ်း",
            "lat": "16.838916146122667",
            "road_en": "Yadanar Road",
            "name_en": "Gate Haung"
        },
        "606": {
            "twsp_mm": "တောင်ဥက္ကလာပ",
            "lng": "96.1929774354212",
            "twsp_en": "South Okkalapa",
            "name_mm": "ဂိတ်ဟောင်း",
            "road_mm": "ရတနာလမ်း",
            "lat": "16.839107162036793",
            "road_en": "Yadanar Road",
            "name_en": "Gate Haung"
        },
        "609": {
            "twsp_mm": "သင်္ဃန်းကျွန်း",
            "lng": "96.19727026904003",
            "twsp_en": "Thingangyun",
            "name_mm": "ကုလားစု",
            "road_mm": "လေးထောင့်ကန်လမ်း",
            "lat": "16.835010345871222",
            "road_en": "Lay Daung Kan Road",
            "name_en": "Kalar Su"
        },
        "1044": {
            "twsp_mm": "ရန်ကင်း",
            "lng": "96.1668924008882",
            "twsp_en": "Yankin",
            "name_mm": "ကျောက်ကုန်းထိပ်",
            "road_mm": "အောင်ဇေယျလမ်း",
            "lat": "16.8325008758371",
            "road_en": "Aung Zeya Road",
            "name_en": "Kyauk Kone Htate"
        },
        "2375": {
            "twsp_mm": "ပုဇွန်တောင်",
            "lng": "96.19206",
            "twsp_en": "Pazundaung",
            "name_mm": "သံလျှက်စွန်း",
            "road_mm": "သံလျှက်စွန်းလမ်း",
            "lat": "16.768352",
            "road_en": "Than Lyet Soon Road",
            "name_en": "Than Lyet Soon"
        },
        "1043": {
            "twsp_mm": "ရန်ကင်း",
            "lng": "96.1669936542785",
            "twsp_en": "Yankin",
            "name_mm": "ကျောက်ကုန်းထိပ်",
            "road_mm": "အောင်ဇေယျလမ်း",
            "lat": "16.8323172809219",
            "road_en": "Aung Zeya Road",
            "name_en": "Kyauk Kone Htate"
        },
        "2374": {
            "twsp_mm": "ပုဇွန်တောင်",
            "lng": "96.18632767349483",
            "twsp_en": "Pazundaung",
            "name_mm": "ဘီအိုစီ",
            "road_mm": "သံလျှက်စွန်းလမ်း",
            "lat": "16.768666942805176",
            "road_en": "Than Lyet Soon Road",
            "name_en": "B.O.C"
        },
        "1042": {
            "twsp_mm": "ရန်ကင်း",
            "lng": "96.1698322556913",
            "twsp_en": "Yankin",
            "name_mm": "ကျောက်ကုန်း",
            "road_mm": "မိုးကောင်းလမ်း",
            "lat": "16.831338604999342",
            "road_en": "Moe Kaung Road",
            "name_en": "Kyauk Kone"
        },
        "2373": {
            "twsp_mm": "ပုဇွန်တောင်",
            "lng": "96.18634514976294",
            "twsp_en": "Pazundaung",
            "name_mm": "ဘီအိုစီ",
            "road_mm": "သံလျှက်စွန်းလမ်း",
            "lat": "16.768580026804553",
            "road_en": "Than Lyet Soon Road",
            "name_en": "B.O.C"
        },
        "1041": {
            "twsp_mm": "ရန်ကင်း",
            "lng": "96.16970203594975",
            "twsp_en": "Yankin",
            "name_mm": "ကျောက်ကုန်း",
            "road_mm": "မိုးကောင်းလမ်း",
            "lat": "16.831231329662653",
            "road_en": "Moe Kaung Road",
            "name_en": "Kyauk Kone"
        },
        "2372": {
            "twsp_mm": "မြောက်ဒဂုံ",
            "lng": "96.19015847565608",
            "twsp_en": "North Dagon",
            "name_mm": "ဓမ္မာရုံ",
            "road_mm": "ရာဇသင်္ကြန်လမ်း",
            "lat": "16.910515978388585",
            "road_en": "Yarza Thingyan Road",
            "name_en": "Dhamar Yone"
        },
        "1040": {
            "twsp_mm": "ရန်ကင်း",
            "lng": "96.172768",
            "twsp_en": "Yankin",
            "name_mm": "ဗဟိုဈေး",
            "road_mm": "သစ္စာလမ်း",
            "lat": "16.840362",
            "road_en": "Thitsar Road",
            "name_en": "Baho Zay"
        },
        "2371": {
            "twsp_mm": "မြောက်ဒဂုံ",
            "lng": "96.19017117423938",
            "twsp_en": "North Dagon",
            "name_mm": "ဓမ္မာရုံ",
            "road_mm": "ရာဇသင်္ကြန်လမ်း",
            "lat": "16.910582620184655",
            "road_en": "Yarza Thingyan Road",
            "name_en": "Dhamar Yone"
        },
        "2370": {
            "twsp_mm": "မြောက်ဒဂုံ",
            "lng": "96.19184803683312",
            "twsp_en": "North Dagon",
            "name_mm": "အမိုက်ပုံး",
            "road_mm": "ရာဇသင်္ကြန်လမ်း",
            "lat": "16.911432321067483",
            "road_en": "Yarza Thingyan Road",
            "name_en": "A Mhyit Pone"
        },
        "1039": {
            "twsp_mm": "ရန်ကင်း",
            "lng": "96.17272029625386",
            "twsp_en": "Yankin",
            "name_mm": "ဗဟိုဈေး",
            "road_mm": "သစ္စာလမ်း",
            "lat": "16.840565132827066",
            "road_en": "Thitsar Road",
            "name_en": "Baho Zay"
        },
        "1038": {
            "twsp_mm": "အရှေ့ဒဂုံ",
            "lng": "96.23563074041158",
            "twsp_en": "East Dagon",
            "name_mm": "စည်ပင်",
            "road_mm": "မင်းရဲကျော်စွာလမ်း",
            "lat": "16.930882590655305",
            "road_en": "Min Ye Kyaw Swar Road",
            "name_en": "Si Pin"
        },
        "2369": {
            "twsp_mm": "မြောက်ဒဂုံ",
            "lng": "96.19184195995332",
            "twsp_en": "North Dagon",
            "name_mm": "အမိုက်ပုံး",
            "road_mm": "ရာဇသင်္ကြန်လမ်း",
            "lat": "16.91148785562915",
            "road_en": "Yarza Thingyan Road",
            "name_en": "A Mhyit Pone"
        },
        "1037": {
            "twsp_mm": "အရှေ့ဒဂုံ",
            "lng": "96.23528054449709",
            "twsp_en": "East Dagon",
            "name_mm": "စည်ပင်",
            "road_mm": "မင်းရဲကျော်စွာလမ်း",
            "lat": "16.930661196860505",
            "road_en": "Min Ye Kyaw Swar Road",
            "name_en": "Si Pin"
        },
        "2368": {
            "twsp_mm": "မြောက်ဒဂုံ",
            "lng": "96.1932468507439",
            "twsp_en": "North Dagon",
            "name_mm": "အောင်တော်မူ",
            "road_mm": "ရာဇသင်္ကြန်လမ်း",
            "lat": "16.91220745776714",
            "road_en": "Yarza Thingyan Road",
            "name_en": "Aung Taw My"
        },
        "610": {
            "twsp_mm": "သင်္ဃန်းကျွန်း",
            "lng": "96.19739677291366",
            "twsp_en": "Thingangyun",
            "name_mm": "ကုလားစု",
            "road_mm": "လေးထောင့်ကန်လမ်း",
            "lat": "16.834930861177277",
            "road_en": "Lay Daung Kan Road",
            "name_en": "Kalar Su"
        },
        "1036": {
            "twsp_mm": "မြောက်ဒဂုံ",
            "lng": "96.210383",
            "twsp_en": "North Dagon",
            "name_mm": "ရုံးရှေ့",
            "road_mm": "ဒဂုံတက္ကသိုလ်",
            "lat": "16.914898",
            "road_en": "Dagon University",
            "name_en": "Yone Shae"
        },
        "2367": {
            "twsp_mm": "မြောက်ဒဂုံ",
            "lng": "96.193211",
            "twsp_en": "North Dagon",
            "name_mm": "အောင်တော်မူ",
            "road_mm": "ရာဇသင်္ကြန်လမ်း",
            "lat": "16.912259",
            "road_en": "Yarza Thingyan Road",
            "name_en": "Aung Taw My"
        },
        "611": {
            "twsp_mm": "သင်္ဃန်းကျွန်း",
            "lng": "96.18816041853279",
            "twsp_en": "Thingangyun",
            "name_mm": "ကျိုက္ကစံဘုရား",
            "road_mm": "ရတနာလမ်း",
            "lat": "16.837686511660152",
            "road_en": "Yadanar Road",
            "name_en": "Kyaikkasan Paya"
        },
        "1035": {
            "twsp_mm": "မြောက်ဒဂုံ",
            "lng": "96.20410118484871",
            "twsp_en": "North Dagon",
            "name_mm": "မုခ်ဝ",
            "road_mm": "ဗိုလ်မှူးဗထူးလမ်း",
            "lat": "16.904565416582642",
            "road_en": "Bo Hmu Ba Htoo Road",
            "name_en": "Moke Wa"
        },
        "2366": {
            "twsp_mm": "မြောက်ဒဂုံ",
            "lng": "96.19444227777423",
            "twsp_en": "North Dagon",
            "name_mm": "မဓ",
            "road_mm": "ရာဇသင်္ကြန်လမ်း",
            "lat": "16.912609189155948",
            "road_en": "Yarza Thingyan Road",
            "name_en": "Ma Da"
        },
        "612": {
            "twsp_mm": "သင်္ဃန်းကျွန်း",
            "lng": "96.19168509263547",
            "twsp_en": "Thingangyun",
            "name_mm": "ကျိုက္ကစံဘုရား",
            "road_mm": "ရတနာလမ်း",
            "lat": "16.838743682092584",
            "road_en": "Yadanar Road",
            "name_en": "Kyaikkasan Paya"
        },
        "1034": {
            "twsp_mm": "မြောက်ဒဂုံ",
            "lng": "96.20416279183702",
            "twsp_en": "North Dagon",
            "name_mm": "မုခ်ဝ",
            "road_mm": "ဗိုလ်မှူးဗထူးလမ်း",
            "lat": "16.90451411038731",
            "road_en": "Bo Hmu Ba Htoo Road",
            "name_en": "Moke Wa"
        },
        "2365": {
            "twsp_mm": "မြောက်ဒဂုံ",
            "lng": "96.19451218284668",
            "twsp_en": "North Dagon",
            "name_mm": "မဓ",
            "road_mm": "ရာဇသင်္ကြန်လမ်း",
            "lat": "16.91265979145201",
            "road_en": "Yarza Thingyan Road",
            "name_en": "Ma Da"
        },
        "613": {
            "twsp_mm": "သင်္ဃန်းကျွန်း",
            "lng": "96.20105572510512",
            "twsp_en": "Thingangyun",
            "name_mm": "လိုင်စင်ရုံး",
            "road_mm": "သံသုမာလမ်း",
            "lat": "16.845855511844686",
            "road_en": "Thanthumar Road",
            "name_en": "Lai Sin Yone"
        },
        "614": {
            "twsp_mm": "သင်္ဃန်းကျွန်း",
            "lng": "96.20077338069677",
            "twsp_en": "Thingangyun",
            "name_mm": "လိုင်စင်ရုံး",
            "road_mm": "သံသုမာလမ်း",
            "lat": "16.845867625393243",
            "road_en": "Thanthumar Road",
            "name_en": "Lai Sin Yone"
        },
        "615": {
            "twsp_mm": "သင်္ဃန်းကျွန်း",
            "lng": "96.1931522190571",
            "twsp_en": "Thingangyun",
            "name_mm": "ဘုရားလမ်း",
            "road_mm": "လေးထောင့်ကန်လမ်း",
            "lat": "16.830733889574624",
            "road_en": "Lay Daung Kan Road",
            "name_en": "Paya Lan"
        },
        "616": {
            "twsp_mm": "သင်္ဃန်းကျွန်း",
            "lng": "96.19334714021535",
            "twsp_en": "Thingangyun",
            "name_mm": "ဘုရားလမ်း",
            "road_mm": "လေးထောင့်ကန်လမ်း",
            "lat": "16.83113763950624",
            "road_en": "Lay Daung Kan Road",
            "name_en": "Paya Lan"
        },
        "1055": {
            "twsp_mm": "သင်္ဃန်းကျွန်း",
            "lng": "96.180452",
            "twsp_en": "Thingangyun",
            "name_mm": "ကုလားဘုရား",
            "road_mm": "ရတနာလမ်း",
            "lat": "16.834791",
            "road_en": "Yadanar Road",
            "name_en": "Kalar Paya"
        },
        "2386": {
            "twsp_mm": "ဗိုလ်တထောင်",
            "lng": "96.16714954376222",
            "twsp_en": "Botahtaung",
            "name_mm": "ကြယ်ငါးပွင့်",
            "road_mm": "သိမ်ဖြူလမ်း",
            "lat": "16.77228030193074",
            "road_en": "Thein Phyu Road",
            "name_en": "Kyel Ngar Pwint"
        },
        "1054": {
            "twsp_mm": "တောင်ဥက္ကလာပ",
            "lng": "96.186638",
            "twsp_en": "South Okkalapa",
            "name_mm": "အောင်ရတနာ",
            "road_mm": "သုမင်္ဂလာလမ်း",
            "lat": "16.835304",
            "road_en": "Thu Mingalar Road",
            "name_en": "Aung Yadanar"
        },
        "2385": {
            "twsp_mm": "ရန်ကင်း",
            "lng": "96.160199",
            "twsp_en": "Yankin",
            "name_mm": "ဗဟိုဘဏ်",
            "road_mm": "အမှတ်(၁)စက်မှုဇုန်လမ်း",
            "lat": "16.824887",
            "road_en": "No. 1 Industrial Road",
            "name_en": "Baho Bank"
        },
        "1053": {
            "twsp_mm": "တောင်ဥက္ကလာပ",
            "lng": "96.186482",
            "twsp_en": "South Okkalapa",
            "name_mm": "အောင်ရတနာ",
            "road_mm": "သုမင်္ဂလာလမ်း",
            "lat": "16.835243",
            "road_en": "Thu Mingalar Road",
            "name_en": "Aung Yadanar"
        },
        "2384": {
            "twsp_mm": "မြောက်ဥက္ကလာပ",
            "lng": "96.15105222444983",
            "twsp_en": "North Okkalapa",
            "name_mm": "ဝေဘာဂီ",
            "road_mm": "ဝေဘာဂီလမ်း",
            "lat": "16.91225292775671",
            "road_en": "Waibargi Road",
            "name_en": "Waibargi"
        },
        "1052": {
            "twsp_mm": "ရန်ကင်း",
            "lng": "96.1626",
            "twsp_en": "Yankin",
            "name_mm": "ရန်ကင်းစာတိုက်",
            "road_mm": "ရန်ကင်းလမ်း",
            "lat": "16.834796",
            "road_en": "Yankin Road",
            "name_en": "Yankin Sar Taik"
        },
        "2383": {
            "twsp_mm": "ရန်ကင်း",
            "lng": "96.15880109846331",
            "twsp_en": "Yankin",
            "name_mm": "စက်မှု (၁)",
            "road_mm": "အမှတ်(၁)စက်မှုဇုန်လမ်း",
            "lat": "16.825994453613134",
            "road_en": "No. 1 Industrial Road",
            "name_en": "Set Hmu (1)"
        },
        "1051": {
            "twsp_mm": "ရန်ကင်း",
            "lng": "96.162728",
            "twsp_en": "Yankin",
            "name_mm": "ရန်ကင်းစာတိုက်",
            "road_mm": "ရန်ကင်းလမ်း",
            "lat": "16.834688",
            "road_en": "Yankin Road",
            "name_en": "Yankin Sar Taik"
        },
        "2382": {
            "twsp_mm": "မြောက်ဥက္ကလာပ",
            "lng": "96.15407276898624",
            "twsp_en": "North Okkalapa",
            "name_mm": "နွယ်သာဂီ",
            "road_mm": "ဝေဘာဂီလမ်း",
            "lat": "16.914043089367464",
            "road_en": "Waibargi Road",
            "name_en": "Nwethargi"
        },
        "1050": {
            "twsp_mm": "ရန်ကင်း",
            "lng": "96.17289694842387",
            "twsp_en": "Yankin",
            "name_mm": "သံလမ်း",
            "road_mm": "ရတနာလမ်း",
            "lat": "16.83370371459609",
            "road_en": "Yadanar Road",
            "name_en": "Than Lan"
        },
        "2381": {
            "twsp_mm": "မြောက်ဥက္ကလာပ",
            "lng": "96.15664844401184",
            "twsp_en": "North Okkalapa",
            "name_mm": "မြို့သစ်",
            "road_mm": "ဝေဘာဂီလမ်း",
            "lat": "16.915429985795324",
            "road_en": "Waibargi Road",
            "name_en": "Myo Thit"
        },
        "2380": {
            "twsp_mm": "မြောက်ဥက္ကလာပ",
            "lng": "96.15984115283938",
            "twsp_en": "North Okkalapa",
            "name_mm": "ဂိတ်ဟောင်း",
            "road_mm": "ဝေဘာဂီလမ်း",
            "lat": "16.917156484967013",
            "road_en": "Waibargi Road",
            "name_en": "Gate Haung"
        },
        "1049": {
            "twsp_mm": "ရန်ကင်း",
            "lng": "96.1729488882702",
            "twsp_en": "Yankin",
            "name_mm": "သံလမ်း",
            "road_mm": "ရတနာလမ်း",
            "lat": "16.833596995452847",
            "road_en": "Yadanar Road",
            "name_en": "Than Lan"
        },
        "1048": {
            "twsp_mm": "ရန်ကင်း",
            "lng": "96.169914",
            "twsp_en": "Yankin",
            "name_mm": "သံလမ်း",
            "road_mm": "ကန်ဘဲ့လမ်း",
            "lat": "16.838986",
            "road_en": "Kanbe Road",
            "name_en": "Than Lan"
        },
        "2379": {
            "twsp_mm": "မြောက်ဥက္ကလာပ",
            "lng": "96.15993574261667",
            "twsp_en": "North Okkalapa",
            "name_mm": "ဂိတ်ဟောင်း",
            "road_mm": "ဝေဘာဂီလမ်း",
            "lat": "16.916998466784737",
            "road_en": "Waibargi Road",
            "name_en": "Gate Haung"
        },
        "1047": {
            "twsp_mm": "ရန်ကင်း",
            "lng": "96.16616418097692",
            "twsp_en": "Yankin",
            "name_mm": "မိုးကောင်း",
            "road_mm": "ကန်ဘဲ့လမ်း",
            "lat": "16.837754509616378",
            "road_en": "Kanbe Road",
            "name_en": "Moe Kaung"
        },
        "2378": {
            "twsp_mm": "မြောက်ဥက္ကလာပ",
            "lng": "96.1568273138255",
            "twsp_en": "North Okkalapa",
            "name_mm": "မြို့သစ်",
            "road_mm": "ဝေဘာဂီလမ်း",
            "lat": "16.915187162375567",
            "road_en": "Waibargi Road",
            "name_en": "Myo Thit"
        },
        "2377": {
            "twsp_mm": "မြောက်ဥက္ကလာပ",
            "lng": "96.15426869597287",
            "twsp_en": "North Okkalapa",
            "name_mm": "နွယ်သာဂီ",
            "road_mm": "ဝေဘာဂီလမ်း",
            "lat": "16.91379713662087",
            "road_en": "Waibargi Road",
            "name_en": "Nwethargi"
        },
        "2376": {
            "twsp_mm": "မြောက်ဥက္ကလာပ",
            "lng": "96.15113809704782",
            "twsp_en": "North Okkalapa",
            "name_mm": "ဝေဘာဂီ",
            "road_mm": "ဝေဘာဂီလမ်း",
            "lat": "16.912190015572452",
            "road_en": "Waibargi Road",
            "name_en": "Waibargi"
        },
        "626": {
            "twsp_mm": "သင်္ဃန်းကျွန်း",
            "lng": "96.20798",
            "twsp_en": "Thingangyun",
            "name_mm": "ချမ်းအေးသွားဆေး",
            "road_mm": "သံသုမာလမ်း",
            "lat": "16.832865",
            "road_en": "Thanthumar Road",
            "name_en": "Chan Aye\/ Thwar Say"
        },
        "627": {
            "twsp_mm": "သင်္ဃန်းကျွန်း",
            "lng": "96.20810620486738",
            "twsp_en": "Thingangyun",
            "name_mm": "ချမ်းအေးသွားဆေး",
            "road_mm": "သံသုမာလမ်း",
            "lat": "16.833007132875704",
            "road_en": "Thanthumar Road",
            "name_en": "Chan Aye\/ Thwar Say"
        },
        "628": {
            "twsp_mm": "တောင်ဒဂုံ",
            "lng": "96.20903999079022",
            "twsp_en": "South Dagon",
            "name_mm": "ကားကြီးဂိတ်",
            "road_mm": "အမှတ်(၂)လမ်းမ",
            "lat": "16.847393204315072",
            "road_en": "No. 2 Main Road",
            "name_en": "Kar Gyi Gate"
        },
        "629": {
            "twsp_mm": "တောင်ဒဂုံ",
            "lng": "96.20909719727936",
            "twsp_en": "South Dagon",
            "name_mm": "ကားကြီးဂိတ်",
            "road_mm": "အမှတ်(၂)လမ်းမ",
            "lat": "16.84738131147338",
            "road_en": "No. 2 Main Road",
            "name_en": "Kar Gyi Gate"
        },
        "1066": {
            "twsp_mm": "တောင်ဥက္ကလာပ",
            "lng": "96.179937",
            "twsp_en": "South Okkalapa",
            "name_mm": "တောင်ဥက္ကလာစာတိုက်",
            "road_mm": "သစ္စာလမ်း",
            "lat": "16.846384",
            "road_en": "Thitsar Road",
            "name_en": "Taung Okkalar Sar Taik"
        },
        "2397": {
            "twsp_mm": "မင်္ဂလာဒုံ",
            "lng": "96.1489316239022",
            "twsp_en": "Mingaladon",
            "name_mm": "ခရေပင်ရိပ်မွန်",
            "road_mm": "ခရေပင်လမ်း",
            "lat": "16.934386748249768",
            "road_en": "Khayae Pin Road",
            "name_en": "Khayae Pin Yate Mon"
        },
        "1065": {
            "twsp_mm": "တောင်ဥက္ကလာပ",
            "lng": "96.1797006474808",
            "twsp_en": "South Okkalapa",
            "name_mm": "တောင်ဥက္ကလာစာတိုက်",
            "road_mm": "သစ္စာလမ်း",
            "lat": "16.84592753129176",
            "road_en": "Thitsar Road",
            "name_en": "Taung Okkalar Sar Taik"
        },
        "2396": {
            "twsp_mm": "မင်္ဂလာဒုံ",
            "lng": "96.14887829404326",
            "twsp_en": "Mingaladon",
            "name_mm": "ခရေပင်ရိပ်မွန်",
            "road_mm": "ခရေပင်လမ်း",
            "lat": "16.934478880275098",
            "road_en": "Khayae Pin Road",
            "name_en": "Khayae Pin Yate Mon"
        },
        "2395": {
            "twsp_mm": "အင်းစိန်",
            "lng": "96.0977136483416",
            "twsp_en": "Insein",
            "name_mm": "ပေါက်တောဝ",
            "road_mm": "လှိုင်မြစ်လမ်း",
            "lat": "16.885452461951",
            "road_en": "Hlaing River Road",
            "name_en": "Pauk Taw Wa"
        },
        "2394": {
            "twsp_mm": "သင်္ဃန်းကျွန်း",
            "lng": "96.1919460841455",
            "twsp_en": "Thingangyun",
            "name_mm": "သုဝဏ္ဏလမ်းဆုံ",
            "road_mm": "ဝေဇယန္တာလမ်း",
            "lat": "16.813132865739",
            "road_en": "Waizayandar Road",
            "name_en": "Thuwunna Lan Sone"
        },
        "1062": {
            "twsp_mm": "မင်္ဂလာဒုံ",
            "lng": "96.1333077773452",
            "twsp_en": "Mingalardon",
            "name_mm": "စာတိုက်",
            "road_mm": "အမှတ်(၁)လမ်းမ",
            "lat": "16.923187459952388",
            "road_en": "No. 1 Main Road",
            "name_en": "Sar Taik"
        },
        "2393": {
            "twsp_mm": "သင်္ဃန်းကျွန်း",
            "lng": "96.1917712166905",
            "twsp_en": "Thingangyun",
            "name_mm": "သုဝဏ္ဏလမ်းဆုံ",
            "road_mm": "ဝေဇယန္တာလမ်း",
            "lat": "16.8131511194368",
            "road_en": "Waizayandar Road",
            "name_en": "Thuwunna Lan Sone"
        },
        "1061": {
            "twsp_mm": "မင်္ဂလာဒုံ",
            "lng": "96.133438",
            "twsp_en": "Mingalardon",
            "name_mm": "စာတိုက်",
            "road_mm": "အမှတ်(၁)လမ်းမ",
            "lat": "16.923592",
            "road_en": "No. 1 Main Road",
            "name_en": "Sar Taik"
        },
        "2392": {
            "twsp_mm": "လှိုင်",
            "lng": "96.1235475540161",
            "twsp_en": "Hlaing",
            "name_mm": "ဘုရားလမ်း",
            "road_mm": "ရန်ကုန်-အင်းစိန်လမ်း",
            "lat": "16.8577458299178",
            "road_en": "Yangon-Insein Road",
            "name_en": "Paya Lan"
        },
        "1060": {
            "twsp_mm": "သင်္ဃန်းကျွန်း",
            "lng": "96.176488",
            "twsp_en": "Thingangyun",
            "name_mm": "(၁၆) ကွေ့",
            "road_mm": "ရတနာလမ်း",
            "lat": "16.833882",
            "road_en": "Yadanar Road",
            "name_en": "Sae-Chauk Kwae"
        },
        "2391": {
            "twsp_mm": "လှိုင်သာယာ",
            "lng": "96.0504267669792",
            "twsp_en": "Hlaing Tharyar",
            "name_mm": "ရွှေမြင်းပျံ",
            "road_mm": "ဗိုလ်အောင်ကျော်လမ်းသွယ်",
            "lat": "16.8809338214197",
            "road_en": "Bo Aung Kyaw Street",
            "name_en": "Shwe Myin Pyan"
        },
        "2390": {
            "twsp_mm": "လှိုင်သာယာ",
            "lng": "96.0502926587112",
            "twsp_en": "Hlaing Tharyar",
            "name_mm": "ရွှေမြင်းပျံ",
            "road_mm": "ဗိုလ်အောင်ကျော်လမ်းသွယ်",
            "lat": "16.8810724195694",
            "road_en": "Bo Aung Kyaw Street",
            "name_en": "Shwe Myin Pyan"
        },
        "630": {
            "twsp_mm": "သင်္ဃန်းကျွန်း",
            "lng": "96.20740019716325",
            "twsp_en": "Thingangyun",
            "name_mm": "စံပြဈေးကွေ့",
            "road_mm": "သံသုမာလမ်း",
            "lat": "16.83949687481868",
            "road_en": "Thanthumar Road",
            "name_en": "Sanpya Zay Kwae"
        },
        "631": {
            "twsp_mm": "သင်္ဃန်းကျွန်း",
            "lng": "96.20758237782866",
            "twsp_en": "Thingangyun",
            "name_mm": "စံပြဈေးကွေ့",
            "road_mm": "သံသုမာလမ်း",
            "lat": "16.838397750744317",
            "road_en": "Thanthumar Road",
            "name_en": "Sanpya Zay Kwae"
        },
        "1059": {
            "twsp_mm": "သင်္ဃန်းကျွန်း",
            "lng": "96.176424",
            "twsp_en": "Thingangyun",
            "name_mm": "(၁၆) ကွေ့",
            "road_mm": "ရတနာလမ်း",
            "lat": "16.833764",
            "road_en": "Yadanar Road",
            "name_en": "Sae-Chauk Kwae"
        },
        "632": {
            "twsp_mm": "သင်္ဃန်းကျွန်း",
            "lng": "96.2040531774983",
            "twsp_en": "Thingangyun",
            "name_mm": "စံပြဈေး\/ ငမိုးရိပ်",
            "road_mm": "သံသုမာလမ်း",
            "lat": "16.843207619927515",
            "road_en": "Thanthumar Road",
            "name_en": "Sanpya Zay\/ Nga Moe Yeik"
        },
        "1058": {
            "twsp_mm": "တောင်ဥက္ကလာပ",
            "lng": "96.1765538295731",
            "twsp_en": "South Okkalapa",
            "name_mm": "ပုဏ္ဏမီ",
            "road_mm": "သစ္စာလမ်း",
            "lat": "16.843469000658473",
            "road_en": "Thitsar Road",
            "name_en": "Ponnami"
        },
        "2389": {
            "twsp_mm": "ဗဟန်း",
            "lng": "96.1434358686529",
            "twsp_en": "Bahan",
            "name_mm": "ဝိဇယပလာဇာ",
            "road_mm": "ဓမ္မစေတီလမ်း",
            "lat": "16.8050307383558",
            "road_en": "Dhamazedi Road",
            "name_en": "Wizaya Plaza"
        },
        "633": {
            "twsp_mm": "သင်္ဃန်းကျွန်း",
            "lng": "96.20381052140148",
            "twsp_en": "Thingangyun",
            "name_mm": "စံပြဈေး\/ ငမိုးရိပ်",
            "road_mm": "သံသုမာလမ်း",
            "lat": "16.8433089218738",
            "road_en": "Thanthumar Road",
            "name_en": "Sanpya Zay\/ Nga Moe Yeik"
        },
        "1057": {
            "twsp_mm": "တောင်ဥက္ကလာပ",
            "lng": "96.17703298466951",
            "twsp_en": "South Okkalapa",
            "name_mm": "ပုဏ္ဏမီ",
            "road_mm": "သစ္စာလမ်း",
            "lat": "16.843634554457434",
            "road_en": "Thitsar Road",
            "name_en": "Ponnami"
        },
        "2388": {
            "twsp_mm": "ရန်ကင်း",
            "lng": "96.1581852240488",
            "twsp_en": "Yankin",
            "name_mm": "စက်မှု (၁)",
            "road_mm": "အမှတ်(၁)စက်မှုဇုန်လမ်း",
            "lat": "16.826158759059954",
            "road_en": "No. 1 Industrial Road",
            "name_en": "Set Hmu (1)"
        },
        "634": {
            "twsp_mm": "သင်္ဃန်းကျွန်း",
            "lng": "96.20437290519476",
            "twsp_en": "Thingangyun",
            "name_mm": "စံပြဈေး\/ ငမိုးရိပ်",
            "road_mm": "လေးထောင့်ကန်လမ်း",
            "lat": "16.84191124705454",
            "road_en": "Lay Daung Kan Road",
            "name_en": "Sanpya Zay\/ Nga Moe Yeik"
        },
        "1056": {
            "twsp_mm": "သင်္ဃန်းကျွန်း",
            "lng": "96.180404",
            "twsp_en": "Thingangyun",
            "name_mm": "ကုလားဘုရား",
            "road_mm": "ရတနာလမ်း",
            "lat": "16.834883",
            "road_en": "Yadanar Road",
            "name_en": "Kalar Paya"
        },
        "2387": {
            "twsp_mm": "ရန်ကင်း",
            "lng": "96.160199",
            "twsp_en": "Yankin",
            "name_mm": "ဗဟိုဘဏ်",
            "road_mm": "အမှတ်(၁)စက်မှုဇုန်လမ်း",
            "lat": "16.824887",
            "road_en": "No. 1 Industrial Road",
            "name_en": "Baho Bank"
        },
        "635": {
            "twsp_mm": "သင်္ဃန်းကျွန်း",
            "lng": "96.20458014775069",
            "twsp_en": "Thingangyun",
            "name_mm": "စံပြဈေး\/ ငမိုးရိပ်",
            "road_mm": "လေးထောင့်ကန်လမ်း",
            "lat": "16.84200212059943",
            "road_en": "Lay Daung Kan Road",
            "name_en": "Sanpya Zay\/ Nga Moe Yeik"
        },
        "636": {
            "twsp_mm": "သင်္ဃန်းကျွန်း",
            "lng": "96.2080962304026",
            "twsp_en": "Thingangyun",
            "name_mm": "ဝေဘူလ",
            "road_mm": "သံသုမာလမ်း",
            "lat": "16.8301749562444",
            "road_en": "Thanthumar Road",
            "name_en": "Waibula"
        },
        "637": {
            "twsp_mm": "သင်္ဃန်းကျွန်း",
            "lng": "96.20798843912782",
            "twsp_en": "Thingangyun",
            "name_mm": "ဝေဘူလ",
            "road_mm": "သံသုမာလမ်း",
            "lat": "16.830512077460014",
            "road_en": "Thanthumar Road",
            "name_en": "Waibula"
        },
        "638": {
            "twsp_mm": "သာကေတ",
            "lng": "96.23811668716371",
            "twsp_en": "Thaketa",
            "name_mm": "အလိုတော်ပြည့်",
            "road_mm": "ဧရာဝဏ်လမ်းမကြီး",
            "lat": "16.820003533727657",
            "road_en": "Ayar Wun Main Road",
            "name_en": "Alo Taw Pyae"
        },
        "639": {
            "twsp_mm": "သာကေတ",
            "lng": "96.23800340574235",
            "twsp_en": "Thaketa",
            "name_mm": "အလိုတော်ပြည့်",
            "road_mm": "ဧရာဝဏ်လမ်းမကြီး",
            "lat": "16.820018597497278",
            "road_en": "Ayar Wun Main Road",
            "name_en": "Alo Taw Pyae"
        },
        "1077": {
            "twsp_mm": "တောင်ဥက္ကလာပ",
            "lng": "96.17771046934651",
            "twsp_en": "South Okkalapa",
            "name_mm": "အင်းဝ",
            "road_mm": "သုမင်္ဂလာလမ်း",
            "lat": "16.849540622118948",
            "road_en": "Thu Mingalar Road",
            "name_en": "Inwa"
        },
        "1076": {
            "twsp_mm": "တောင်ဥက္ကလာပ",
            "lng": "96.17750647477808",
            "twsp_en": "South Okkalapa",
            "name_mm": "အင်းဝ",
            "road_mm": "သုမင်္ဂလာလမ်း",
            "lat": "16.84950257748793",
            "road_en": "Thu Mingalar Road",
            "name_en": "Inwa"
        },
        "1075": {
            "twsp_mm": "တောင်ဥက္ကလာပ",
            "lng": "96.17896331241356",
            "twsp_en": "South Okkalapa",
            "name_mm": "ဘေလီ",
            "road_mm": "သံသုမာလမ်း",
            "lat": "16.85981610253591",
            "road_en": "Thanthumar Road",
            "name_en": "Bay Li"
        },
        "1074": {
            "twsp_mm": "တောင်ဥက္ကလာပ",
            "lng": "96.177093",
            "twsp_en": "South Okkalapa",
            "name_mm": "ဘေလီ",
            "road_mm": "ပါရမီလမ်း",
            "lat": "16.86095",
            "road_en": "Parami Road",
            "name_en": "Bay Li"
        },
        "1073": {
            "twsp_mm": "တောင်ဥက္ကလာပ",
            "lng": "96.177126",
            "twsp_en": "South Okkalapa",
            "name_mm": "ဘေလီ",
            "road_mm": "ပါရမီလမ်း",
            "lat": "16.860898",
            "road_en": "Parami Road",
            "name_en": "Bay Li"
        },
        "1072": {
            "twsp_mm": "တောင်ဥက္ကလာပ",
            "lng": "96.181267",
            "twsp_en": "South Okkalapa",
            "name_mm": "ရုံးရှေ့",
            "road_mm": "သုမင်္ဂလာလမ်း",
            "lat": "16.844541",
            "road_en": "Thu Mingalar Road",
            "name_en": "Yone Shae"
        },
        "1071": {
            "twsp_mm": "သင်္ဃန်းကျွန်း",
            "lng": "96.183033",
            "twsp_en": "Thingangyun",
            "name_mm": "ရတနာဈေး",
            "road_mm": "ရတနာလမ်း",
            "lat": "16.835962",
            "road_en": "Yadanar Road",
            "name_en": "Yadanar Zay"
        },
        "1070": {
            "twsp_mm": "သင်္ဃန်းကျွန်း",
            "lng": "96.18307",
            "twsp_en": "Thingangyun",
            "name_mm": "ရတနာဈေး",
            "road_mm": "ရတနာလမ်း",
            "lat": "16.835869",
            "road_en": "Yadanar Road",
            "name_en": "Yadanar Zay"
        },
        "640": {
            "twsp_mm": "တောင်ဒဂုံ",
            "lng": "96.24029874801636",
            "twsp_en": "South Dagon",
            "name_mm": "ဆောက်လုပ်ရေး",
            "road_mm": "ပြည်ထောင်စုလမ်းမကြီး",
            "lat": "16.828674350388894",
            "road_en": "Pyi Htaung Su Main Road",
            "name_en": "Sauk Lote Yae"
        },
        "641": {
            "twsp_mm": "တောင်ဒဂုံ",
            "lng": "96.24061445239933",
            "twsp_en": "South Dagon",
            "name_mm": "ဆောက်လုပ်ရေး",
            "road_mm": "ပြည်ထောင်စုလမ်းမကြီး",
            "lat": "16.828641957742104",
            "road_en": "Pyi Htaung Su Main Road",
            "name_en": "Sauk Lote Yae"
        },
        "642": {
            "twsp_mm": "သာကေတ",
            "lng": "96.23667323961857",
            "twsp_en": "Thaketa",
            "name_mm": "သစ်ဆိတ်",
            "road_mm": "ဧရာဝဏ်လမ်းမကြီး",
            "lat": "16.815399419977282",
            "road_en": "Ayar Wun Main Road",
            "name_en": "Thit Sait"
        },
        "643": {
            "twsp_mm": "သာကေတ",
            "lng": "96.23662282247099",
            "twsp_en": "Thaketa",
            "name_mm": "သစ်ဆိတ်",
            "road_mm": "ဧရာဝဏ်လမ်းမကြီး",
            "lat": "16.815545126824926",
            "road_en": "Ayar Wun Main Road",
            "name_en": "Thit Sait"
        },
        "1069": {
            "twsp_mm": "သင်္ဃန်းကျွန်း",
            "lng": "96.187951",
            "twsp_en": "Thingangyun",
            "name_mm": "သရက်တော",
            "road_mm": "သုမင်္ဂလာလမ်း",
            "lat": "16.832619",
            "road_en": "Thu Mingalar Road",
            "name_en": "Thayet Taw"
        },
        "644": {
            "twsp_mm": "တောင်ဒဂုံ",
            "lng": "96.22727358480915",
            "twsp_en": "South Dagon",
            "name_mm": "ဂျီအီးစီ",
            "road_mm": "ပြည်ထောင်စုလမ်းမကြီး",
            "lat": "16.843963763140934",
            "road_en": "Pyi Htaung Su Main Road",
            "name_en": "G.E.C"
        },
        "1068": {
            "twsp_mm": "တောင်ဥက္ကလာပ",
            "lng": "96.179625",
            "twsp_en": "South Okkalapa",
            "name_mm": "တောင်ဥက္ကလာစာတိုက်",
            "road_mm": "သုမင်္ဂလာလမ်း",
            "lat": "16.846759",
            "road_en": "Thu Mingalar Road",
            "name_en": "Taung Okkalar Sar Taik"
        },
        "2399": {
            "twsp_mm": "ဒဂုံ",
            "lng": "96.15313701331617",
            "twsp_en": "Latha",
            "name_mm": "လေဟာပြင်စျေး",
            "road_mm": "ရွှေတိဂုံ ဘုရားလမ်း",
            "lat": "16.778190063414947",
            "road_en": "Shwedagon Pagoda Road",
            "name_en": "Lay Har Pyin Zay"
        },
        "645": {
            "twsp_mm": "တောင်ဒဂုံ",
            "lng": "96.22708694078028",
            "twsp_en": "South Dagon",
            "name_mm": "ဂျီအီးစီ",
            "road_mm": "ပြည်ထောင်စုလမ်းမကြီး",
            "lat": "16.8442412742828",
            "road_en": "Pyi Htaung Su Main Road",
            "name_en": "G.E.C"
        },
        "1067": {
            "twsp_mm": "တောင်ဥက္ကလာပ",
            "lng": "96.179389",
            "twsp_en": "South Okkalapa",
            "name_mm": "တောင်ဥက္ကလာစာတိုက်",
            "road_mm": "သုမင်္ဂလာလမ်း",
            "lat": "16.846687",
            "road_en": "Thu Mingalar Road",
            "name_en": "Taung Okkalar Sar Taik"
        },
        "2398": {
            "twsp_mm": "ဒဂုံ",
            "lng": "96.153326863423",
            "twsp_en": "Dagon",
            "name_mm": "ဆောက်လုပ်ရေး",
            "road_mm": "ရွှေတိဂုံဘုရားလမ်း",
            "lat": "16.7832299480336",
            "road_en": "Shwedagon Pagoda Road",
            "name_en": "Sauk Lote Yae"
        },
        "646": {
            "twsp_mm": "တောင်ဒဂုံ",
            "lng": "96.22972459997983",
            "twsp_en": "South Dagon",
            "name_mm": "စက်မှုဇုံ (၂)",
            "road_mm": "ပြည်ထောင်စုလမ်းမကြီး",
            "lat": "16.841916160765322",
            "road_en": "Pyi Htaung Su Main Road",
            "name_en": "Set Hmu Zone Hnit"
        },
        "647": {
            "twsp_mm": "တောင်ဒဂုံ",
            "lng": "96.22982908040287",
            "twsp_en": "South Dagon",
            "name_mm": "စက်မှုဇုံ (၂)",
            "road_mm": "ပြည်ထောင်စုလမ်းမကြီး",
            "lat": "16.841933449003886",
            "road_en": "Pyi Htaung Su Main Road",
            "name_en": "Set Hmu Zone Hnit"
        },
        "648": {
            "twsp_mm": "တောင်ဒဂုံ",
            "lng": "96.22321617789568",
            "twsp_en": "South Dagon",
            "name_mm": "သစ်ဆိုင်ကွေ့",
            "road_mm": "ပြည်ထောင်စုလမ်းမကြီး",
            "lat": "16.847488848406",
            "road_en": "Pyi Htaung Su Main Road",
            "name_en": "Thit Saing Kwae"
        },
        "649": {
            "twsp_mm": "တောင်ဒဂုံ",
            "lng": "96.2332585360855",
            "twsp_en": "South Dagon",
            "name_mm": "ဧရာဝတီလမ်းထိပ်",
            "road_mm": "ပြည်ထောင်စုလမ်းမကြီး",
            "lat": "16.837391662143506",
            "road_en": "Pyi Htaung Su Main Road",
            "name_en": "Ayeyarwaddy Lan Htate"
        },
        "1080": {
            "twsp_mm": "တောင်ဥက္ကလာပ",
            "lng": "96.181458",
            "twsp_en": "South Okkalapa",
            "name_mm": "ဘုရားလမ်း",
            "road_mm": "သစ္စာလမ်း",
            "lat": "16.847858",
            "road_en": "Thitsar Road",
            "name_en": "Paya Lan"
        },
        "1088": {
            "twsp_mm": "တောင်ဥက္ကလာပ",
            "lng": "96.19427426252517",
            "twsp_en": "South Okkalapa",
            "name_mm": "(၃၁) ဂိတ်\/(၁) ဂိတ်",
            "road_mm": "သံသုမာလမ်း",
            "lat": "16.84893896654162",
            "road_en": "Thanthumar Road",
            "name_en": "Thone-sae-tit Gate\/ Tit Gate"
        },
        "1087": {
            "twsp_mm": "တောင်ဥက္ကလာပ",
            "lng": "96.18960512336345",
            "twsp_en": "South Okkalapa",
            "name_mm": "မိုးစွေ",
            "road_mm": "သံသုမာလမ်း",
            "lat": "16.850142356003158",
            "road_en": "Thanthumar Road",
            "name_en": "Moe Swe"
        },
        "1086": {
            "twsp_mm": "တောင်ဥက္ကလာပ",
            "lng": "96.18949697585776",
            "twsp_en": "South Okkalapa",
            "name_mm": "မိုးစွေ",
            "road_mm": "သံသုမာလမ်း",
            "lat": "16.850043765153913",
            "road_en": "Thanthumar Road",
            "name_en": "Moe Swe"
        },
        "1083": {
            "twsp_mm": "တောင်ဥက္ကလာပ",
            "lng": "96.18543030694127",
            "twsp_en": "South Okkalapa",
            "name_mm": "တောင်ဥက္ကလာပဘုရား",
            "road_mm": "သံသုမာလမ်း",
            "lat": "16.8528135748857",
            "road_en": "Thanthumar Road",
            "name_en": "Taung Okkalar Paya"
        },
        "1082": {
            "twsp_mm": "တောင်ဥက္ကလာပ",
            "lng": "96.18528316263111",
            "twsp_en": "South Okkalapa",
            "name_mm": "တောင်ဥက္ကလာပဘုရား",
            "road_mm": "သံသုမာလမ်း",
            "lat": "16.852719277159586",
            "road_en": "Thanthumar Road",
            "name_en": "Taung Okkalar Paya"
        },
        "1081": {
            "twsp_mm": "တောင်ဥက္ကလာပ",
            "lng": "96.176149",
            "twsp_en": "South Okkalapa",
            "name_mm": "ပင်းယ",
            "road_mm": "ပါရမီလမ်း",
            "lat": "16.85943",
            "road_en": "Parami Road",
            "name_en": "Pinya"
        },
        "650": {
            "twsp_mm": "တောင်ဒဂုံ",
            "lng": "96.2331836228259",
            "twsp_en": "South Dagon",
            "name_mm": "ဧရာဝတီလမ်းထိပ်",
            "road_mm": "ပြည်ထောင်စုလမ်းမကြီး",
            "lat": "16.837339695896507",
            "road_en": "Pyi Htaung Su Main Road",
            "name_en": "Ayeyarwaddy Lan Htate"
        },
        "651": {
            "twsp_mm": "သာကေတ",
            "lng": "96.24273446621373",
            "twsp_en": "Thaketa",
            "name_mm": "(၆၅) ရပ်ကွက်",
            "road_mm": "ဧရာဝဏ်လမ်းမကြီး",
            "lat": "16.834939846579637",
            "road_en": "Ayar Wun Main Road",
            "name_en": "Chauk-sae-ngar Yat Kwet"
        },
        "652": {
            "twsp_mm": "သာကေတ",
            "lng": "96.24283351935448",
            "twsp_en": "Thaketa",
            "name_mm": "(၆၅) ရပ်ကွက်",
            "road_mm": "ဧရာဝဏ်လမ်းမကြီး",
            "lat": "16.834918044944178",
            "road_en": "Ayar Wun Main Road",
            "name_en": "Chauk-sae-ngar Yat Kwet"
        },
        "653": {
            "twsp_mm": "ရွှေပြည်သာ",
            "lng": "96.23136122943835",
            "twsp_en": "Shwe Pyithar",
            "name_mm": "ကြာကန်",
            "road_mm": "လှော်ကားလမ်း",
            "lat": "16.84376623400407",
            "road_en": "Hlawga Road",
            "name_en": "Kyar Kan"
        },
        "654": {
            "twsp_mm": "ရွှေပြည်သာ",
            "lng": "96.23138951836154",
            "twsp_en": "Shwe Pyithar",
            "name_mm": "ကြာကန်",
            "road_mm": "လှော်ကားလမ်း",
            "lat": "16.843938533011876",
            "road_en": "Hlawga Road",
            "name_en": "Kyar Kan"
        },
        "1079": {
            "twsp_mm": "တောင်ဥက္ကလာပ",
            "lng": "96.1818828759715",
            "twsp_en": "South Okkalapa",
            "name_mm": "မြင်သာဈေး",
            "road_mm": "သံသုမာလမ်း",
            "lat": "16.85684434759549",
            "road_en": "Thanthumar Road",
            "name_en": "Myin Thar Zay"
        },
        "1078": {
            "twsp_mm": "တောင်ဥက္ကလာပ",
            "lng": "96.18179788347335",
            "twsp_en": "South Okkalapa",
            "name_mm": "မြင်သာဈေး",
            "road_mm": "သံသုမာလမ်း",
            "lat": "16.85676082108605",
            "road_en": "Thanthumar Road",
            "name_en": "Myin Thar Zay"
        },
        "657": {
            "twsp_mm": "တောင်ဒဂုံ",
            "lng": "96.23262995621191",
            "twsp_en": "South Dagon",
            "name_mm": "စက်မှုဇုံဈေး",
            "road_mm": "ပြည်ထောင်စုလမ်းမကြီး",
            "lat": "16.83839169373108",
            "road_en": "Pyi Htaung Su Main Road",
            "name_en": "Set Hmu Zone Zay"
        },
        "658": {
            "twsp_mm": "တောင်ဒဂုံ",
            "lng": "96.23249247204514",
            "twsp_en": "South Dagon",
            "name_mm": "စက်မှုဇုံဈေး",
            "road_mm": "ပြည်ထောင်စုလမ်းမကြီး",
            "lat": "16.838776975544747",
            "road_en": "Pyi Htaung Su Main Road",
            "name_en": "Set Hmu Zone Zay"
        },
        "659": {
            "twsp_mm": "တောင်ဒဂုံ",
            "lng": "96.23411625623704",
            "twsp_en": "South Dagon",
            "name_mm": "ရွှေတောင်ကြားလမ်း",
            "road_mm": "ပြည်ထောင်စုလမ်းမကြီး",
            "lat": "16.83407247249304",
            "road_en": "Pyi Htaung Su Main Road",
            "name_en": "Shwe Taung Kyar Lan"
        },
        "1090": {
            "twsp_mm": "တောင်ဥက္ကလာပ",
            "lng": "96.19847623631361",
            "twsp_en": "South Okkalapa",
            "name_mm": "စီမံကိန်း",
            "road_mm": "သံသုမာလမ်း",
            "lat": "16.84748429583662",
            "road_en": "Thanthumar Road",
            "name_en": "Se Man Kane"
        },
        "1099": {
            "twsp_mm": "လှိုင်သာယာ",
            "lng": "96.04712886270136",
            "twsp_en": "Hlaing Tharyar",
            "name_mm": "ရိုးလေး",
            "road_mm": "ရွှေပြည်သာတံတားလမ်း",
            "lat": "16.90259642355812",
            "road_en": "Shwe Pyi Thar Bridge Road",
            "name_en": "Yoe Lay"
        },
        "1098": {
            "twsp_mm": "လှိုင်သာယာ",
            "lng": "96.0400802269578",
            "twsp_en": "Hlaing Tharyar",
            "name_mm": "ကျောင်းလမ်း",
            "road_mm": "ရွှေပြည်သာတံတားလမ်း",
            "lat": "16.890095313381465",
            "road_en": "Shwe Pyi Thar Bridge Road",
            "name_en": "Kyaung Lan"
        },
        "1097": {
            "twsp_mm": "လှိုင်သာယာ",
            "lng": "96.04012873722243",
            "twsp_en": "Hlaing Tharyar",
            "name_mm": "ကျောင်းလမ်း",
            "road_mm": "ရွှေပြည်သာတံတားလမ်း",
            "lat": "16.890025235648455",
            "road_en": "Shwe Pyi Thar Bridge Road",
            "name_en": "Kyaung Lan"
        },
        "1096": {
            "twsp_mm": "လှိုင်သာယာ",
            "lng": "96.05486885877326",
            "twsp_en": "Hlaing Tharyar",
            "name_mm": "အဝိုင်း",
            "road_mm": "အနောက်ပိုင်းတက္ကသိုလ်လမ်း",
            "lat": "16.922602177239348",
            "road_en": "West University Road",
            "name_en": "Awine"
        },
        "1094": {
            "twsp_mm": "လှိုင်သာယာ",
            "lng": "96.05480410857128",
            "twsp_en": "Hlaing Tharyar",
            "name_mm": "အဝိုင်း",
            "road_mm": "အနောက်ပိုင်းတက္ကသိုလ်လမ်း",
            "lat": "16.922554865387212",
            "road_en": "West University Road",
            "name_en": "Awine"
        },
        "660": {
            "twsp_mm": "တောင်ဒဂုံ",
            "lng": "96.23404959915207",
            "twsp_en": "South Dagon",
            "name_mm": "ရွှေတောင်ကြားလမ်း",
            "road_mm": "ပြည်ထောင်စုလမ်းမကြီး",
            "lat": "16.83437753606991",
            "road_en": "Pyi Htaung Su Main Road",
            "name_en": "Shwe Taung Kyar Lan"
        },
        "661": {
            "twsp_mm": "တောင်ဒဂုံ",
            "lng": "96.23431846965107",
            "twsp_en": "South Dagon",
            "name_mm": "စစ်တောင်းလမ်းထိပ်",
            "road_mm": "ပြည်ထောင်စုလမ်းမကြီး",
            "lat": "16.83164594600799",
            "road_en": "Pyi Htaung Su Main Road",
            "name_en": "Sittaung Lan Htate"
        },
        "662": {
            "twsp_mm": "တောင်ဒဂုံ",
            "lng": "96.23418641276659",
            "twsp_en": "South Dagon",
            "name_mm": "စစ်တောင်းလမ်းထိပ်",
            "road_mm": "ပြည်ထောင်စုလမ်းမကြီး",
            "lat": "16.831915592797035",
            "road_en": "Pyi Htaung Su Main Road",
            "name_en": "Sittaung Lan Htate"
        },
        "663": {
            "twsp_mm": "သာကေတ",
            "lng": "96.24378874199466",
            "twsp_en": "Thaketa",
            "name_mm": "သိမ်ကျောင်း",
            "road_mm": "ဧရာဝဏ်လမ်းမကြီး",
            "lat": "16.83794696402446",
            "road_en": "Ayar Wun Main Road",
            "name_en": "Thein Kyaung"
        },
        "664": {
            "twsp_mm": "သာကေတ",
            "lng": "96.24387042364107",
            "twsp_en": "Thaketa",
            "name_mm": "သိမ်ကျောင်း",
            "road_mm": "ဧရာဝဏ်လမ်းမကြီး",
            "lat": "16.838579621501808",
            "road_en": "Ayar Wun Main Road",
            "name_en": "Thein Kyaung"
        },
        "666": {
            "twsp_mm": "သာကေတ",
            "lng": "96.24415834201501",
            "twsp_en": "Thaketa",
            "name_mm": "သိမ်ကျောင်း",
            "road_mm": "ဧရာဝဏ်လမ်းမကြီး",
            "lat": "16.838174523605293",
            "road_en": "Ayar Wun Main Road",
            "name_en": "Thein Kyaung"
        },
        "667": {
            "twsp_mm": "ရွှေပြည်သာ",
            "lng": "96.23283600434662",
            "twsp_en": "Shwe Pyithar",
            "name_mm": "သစ္စာ",
            "road_mm": "လှော်ကားလမ်း",
            "lat": "16.845669055354318",
            "road_en": "Hlawga Road",
            "name_en": "Thitsar"
        },
        "1089": {
            "twsp_mm": "တောင်ဥက္ကလာပ",
            "lng": "96.19840957922862",
            "twsp_en": "South Okkalapa",
            "name_mm": "စီမံကိန်း",
            "road_mm": "သံသုမာလမ်း",
            "lat": "16.84743423762148",
            "road_en": "Thanthumar Road",
            "name_en": "Se Man Kane"
        },
        "668": {
            "twsp_mm": "ရွှေပြည်သာ",
            "lng": "96.23292652890088",
            "twsp_en": "Shwe Pyithar",
            "name_mm": "သစ္စာ",
            "road_mm": "လှော်ကားလမ်း",
            "lat": "16.845890508766836",
            "road_en": "Hlawga Road",
            "name_en": "Thitsar"
        },
        "673": {
            "twsp_mm": "တောင်ဒဂုံ",
            "lng": "96.21246330672876",
            "twsp_en": "South Dagon",
            "name_mm": "တံတားဖြူ",
            "road_mm": "အမှတ်(၂)လမ်းမ",
            "lat": "16.857554511951882",
            "road_en": "No. 2 Main Road",
            "name_en": "Tadar Phyu"
        },
        "674": {
            "twsp_mm": "တောင်ဒဂုံ",
            "lng": "96.212414985057",
            "twsp_en": "South Dagon",
            "name_mm": "တံတားဖြူ",
            "road_mm": "အမှတ်(၂)လမ်းမ",
            "lat": "16.857583069279",
            "road_en": "No. 2 Main Road",
            "name_en": "Tadar Phyu"
        },
        "675": {
            "twsp_mm": "မြောက်ဒဂုံ",
            "lng": "96.21348862303421",
            "twsp_en": "North Dagon",
            "name_mm": "တောင်\/မြောက်လမ်းဆုံ",
            "road_mm": "ပြည်ထောင်စုလမ်းမကြီး",
            "lat": "16.861557830113263",
            "road_en": "Pyi Htaung Su Main Road",
            "name_en": "Taung Myauk Lan Sone"
        },
        "676": {
            "twsp_mm": "မြောက်ဒဂုံ",
            "lng": "96.21354356640951",
            "twsp_en": "North Dagon",
            "name_mm": "တောင်\/မြောက်လမ်းဆုံ",
            "road_mm": "ပြည်ထောင်စုလမ်းမကြီး",
            "lat": "16.861615886085886",
            "road_en": "Pyi Htaung Su Main Road",
            "name_en": "Taung Myauk Lan Sone"
        },
        "677": {
            "twsp_mm": "တောင်ဒဂုံ",
            "lng": "96.21454811654986",
            "twsp_en": "South Dagon",
            "name_mm": "တောင်\/မြောက်လမ်းဆုံ",
            "road_mm": "ပြည်ထောင်စုလမ်းမကြီး",
            "lat": "16.858665898173957",
            "road_en": "Pyi Htaung Su Main Road",
            "name_en": "Taung Myauk Lan Sone"
        },
        "678": {
            "twsp_mm": "တောင်ဒဂုံ",
            "lng": "96.21464063180612",
            "twsp_en": "South Dagon",
            "name_mm": "တောင်\/မြောက်လမ်းဆုံ",
            "road_mm": "ပြည်ထောင်စုလမ်းမကြီး",
            "lat": "16.858705846109032",
            "road_en": "Pyi Htaung Su Main Road",
            "name_en": "Taung Myauk Lan Sone"
        },
        "679": {
            "twsp_mm": "တောင်ဒဂုံ",
            "lng": "96.21641847537832",
            "twsp_en": "South Dagon",
            "name_mm": "တောင်\/မြောက်လမ်းဆုံ",
            "road_mm": "အမှတ်(၂)လမ်းမ",
            "lat": "16.862961456099224",
            "road_en": "No. 2 Main Road",
            "name_en": "Taung Myauk Lan Sone"
        },
        "680": {
            "twsp_mm": "တောင်ဒဂုံ",
            "lng": "96.21640563011171",
            "twsp_en": "South Dagon",
            "name_mm": "တောင်\/မြောက်လမ်းဆုံ",
            "road_mm": "အမှတ်(၂)လမ်းမ",
            "lat": "16.86303282731339",
            "road_en": "No. 2 Main Road",
            "name_en": "Taung Myauk Lan Sone"
        },
        "681": {
            "twsp_mm": "တောင်ဒဂုံ",
            "lng": "96.21478148968893",
            "twsp_en": "South Dagon",
            "name_mm": "သံလမ်း",
            "road_mm": "ပြည်ထောင်စုလမ်းမကြီး",
            "lat": "16.854747570367522",
            "road_en": "Pyi Htaung Su Main Road",
            "name_en": "Than Lan"
        },
        "682": {
            "twsp_mm": "တောင်ဒဂုံ",
            "lng": "96.21484707808123",
            "twsp_en": "South Dagon",
            "name_mm": "သံလမ်း",
            "road_mm": "ပြည်ထောင်စုလမ်းမကြီး",
            "lat": "16.854732930507534",
            "road_en": "Pyi Htaung Su Main Road",
            "name_en": "Than Lan"
        },
        "201": {
            "twsp_mm": "ဒဂုံ",
            "lng": "96.1510692397133",
            "twsp_en": "Dagon",
            "name_mm": "တောင်ဘက်မုခ်",
            "road_mm": "ရွှေတိဂုံဘုရားလမ်း",
            "lat": "16.793821314974",
            "road_en": "Shwedagon Pagoda Road",
            "name_en": "Taung Phat Moke"
        },
        "202": {
            "twsp_mm": "ဒဂုံ",
            "lng": "96.15719425259158",
            "twsp_en": "Dagon",
            "name_mm": "ကျောက်တိုင်",
            "road_mm": "တိရိစ္ဆာန်ဥယျာဉ်လမ်း",
            "lat": "16.7887528427616",
            "road_en": "ZOOlogical Garden Road",
            "name_en": "Kyauk Taing"
        },
        "203": {
            "twsp_mm": "ဒဂုံ",
            "lng": "96.15748437121512",
            "twsp_en": "Dagon",
            "name_mm": "ကျောက်တိုင်",
            "road_mm": "တိရိစ္ဆာန်ဥယျာဉ်လမ်း",
            "lat": "16.789040545760724",
            "road_en": "ZOOlogical Garden Road",
            "name_en": "Kyauk Taing"
        },
        "687": {
            "twsp_mm": "တောင်ဒဂုံ",
            "lng": "96.2297002505511",
            "twsp_en": "South Dagon",
            "name_mm": "ဂိတ်ဟောင်း",
            "road_mm": "စည်ပင်လမ်း",
            "lat": "16.85231094058949",
            "road_en": "Si Pin Road",
            "name_en": "Gate Haung"
        },
        "204": {
            "twsp_mm": "ဒဂုံ",
            "lng": "96.15193837333209",
            "twsp_en": "Dagon",
            "name_mm": "အရှေ့ဘက်မုခ်",
            "road_mm": "အာဇာနည်လမ်း",
            "lat": "16.798261809979387",
            "road_en": "RZarNi Road",
            "name_en": "Ashae Phat Moke"
        },
        "688": {
            "twsp_mm": "တောင်ဒဂုံ",
            "lng": "96.2296228017658",
            "twsp_en": "South Dagon",
            "name_mm": "ဂိတ်ဟောင်း",
            "road_mm": "စည်ပင်လမ်း",
            "lat": "16.852380771600217",
            "road_en": "Si Pin Road",
            "name_en": "Gate Haung"
        },
        "205": {
            "twsp_mm": "ဒဂုံ",
            "lng": "96.15180441644044",
            "twsp_en": "Dagon",
            "name_mm": "အရှေ့ဘက်မုခ်",
            "road_mm": "အာဇာနည်လမ်း",
            "lat": "16.798163640361214",
            "road_en": "RZarNi Road",
            "name_en": "Ashae Phat Moke"
        },
        "206": {
            "twsp_mm": "ဒဂုံ",
            "lng": "96.14897002709769",
            "twsp_en": "Dagon",
            "name_mm": "မြောက်ဘက်မုခ်",
            "road_mm": "အာဇာနည်လမ်း",
            "lat": "16.800997385232012",
            "road_en": "RZarNi Road",
            "name_en": "Myauk Phat Moke"
        },
        "207": {
            "twsp_mm": "ဒဂုံ",
            "lng": "96.14910688229429",
            "twsp_en": "Dagon",
            "name_mm": "မြောက်ဘက်မုခ်",
            "road_mm": "အာဇာနည်လမ်း",
            "lat": "16.801157867350614",
            "road_en": "RZarNi Road",
            "name_en": "Myauk Phat Moke"
        },
        "208": {
            "twsp_mm": "ဗဟန်း",
            "lng": "96.15702768322082",
            "twsp_en": "Bahan",
            "name_mm": "ဗဟန်းသုံးလမ်း",
            "road_mm": "ဗဟန်းလမ်း",
            "lat": "16.79706005725926",
            "road_en": "Bahan Road",
            "name_en": "Bahan Thone Lan"
        },
        "209": {
            "twsp_mm": "ဗဟန်း",
            "lng": "96.15706854499878",
            "twsp_en": "Bahan",
            "name_mm": "ဗဟန်းသုံးလမ်း",
            "road_mm": "ဗဟန်းလမ်း",
            "lat": "16.798049388513782",
            "road_en": "Bahan Road",
            "name_en": "Bahan Thone Lan"
        },
        "691": {
            "twsp_mm": "တောင်ဒဂုံ",
            "lng": "96.22747806133705",
            "twsp_en": "South Dagon",
            "name_mm": "ကုန်ပဒေသာ",
            "road_mm": "စည်ပင်လမ်း",
            "lat": "16.84975661600442",
            "road_en": "Si Pin Road",
            "name_en": "Kone Padaythar"
        },
        "692": {
            "twsp_mm": "တောင်ဒဂုံ",
            "lng": "96.22755198972301",
            "twsp_en": "South Dagon",
            "name_mm": "ကုန်ပဒေသာ",
            "road_mm": "စည်ပင်လမ်း",
            "lat": "16.849945354749266",
            "road_en": "Si Pin Road",
            "name_en": "Kone Padaythar"
        },
        "693": {
            "twsp_mm": "တောင်ဒဂုံ",
            "lng": "96.23018830781804",
            "twsp_en": "South Dagon",
            "name_mm": "မြို့ဦးကျောင်း",
            "road_mm": "မောင်းမကန်ကန်သာလမ်း",
            "lat": "16.861739939306485",
            "road_en": "Maungmakan Kantha Road",
            "name_en": "Myo Oo Kyaung"
        },
        "210": {
            "twsp_mm": "ဗဟန်း",
            "lng": "96.15790716849006",
            "twsp_en": "Bahan",
            "name_mm": "ရေခဲဆိုင်",
            "road_mm": "ကိုယ်မင်းကိုယ်ချင်းလမ်း",
            "lat": "16.801598383916467",
            "road_en": "Koe Min Ko Chin Road",
            "name_en": "Yae Khae Saing"
        },
        "694": {
            "twsp_mm": "တောင်ဒဂုံ",
            "lng": "96.23023074120285",
            "twsp_en": "South Dagon",
            "name_mm": "မြို့ဦးကျောင်း",
            "road_mm": "မောင်းမကန်ကန်သာလမ်း",
            "lat": "16.861769819555995",
            "road_en": "Maungmakan Kantha Road",
            "name_en": "Myo Oo Kyaung"
        },
        "211": {
            "twsp_mm": "ဗဟန်း",
            "lng": "96.15951530635358",
            "twsp_en": "Bahan",
            "name_mm": "ရေခဲဆိုင်",
            "road_mm": "နတ်မောက်လမ်း",
            "lat": "16.80097529210924",
            "road_en": "Nat Mauk Road",
            "name_en": "Yae Khae Saing"
        },
        "695": {
            "twsp_mm": "တောင်ဒဂုံ",
            "lng": "96.21852030046286",
            "twsp_en": "South Dagon",
            "name_mm": "ပန်းခြံ",
            "road_mm": "ပြည်ထောင်စုလမ်းမကြီး",
            "lat": "16.85140732658994",
            "road_en": "Pyi Htaung Su Main Road",
            "name_en": "Pan Chan"
        },
        "212": {
            "twsp_mm": "ဗဟန်း",
            "lng": "96.15947306156158",
            "twsp_en": "Bahan",
            "name_mm": "ရေခဲဆိုင်",
            "road_mm": "နတ်မောက်လမ်း",
            "lat": "16.801109515497174",
            "road_en": "Nat Mauk Road",
            "name_en": "Yae Khae Saing"
        },
        "696": {
            "twsp_mm": "တောင်ဒဂုံ",
            "lng": "96.21855676174165",
            "twsp_en": "South Dagon",
            "name_mm": "ပန်းခြံ",
            "road_mm": "ပြည်ထောင်စုလမ်းမကြီး",
            "lat": "16.851441460122164",
            "road_en": "Pyi Htaung Su Main Road",
            "name_en": "Pan Chan"
        },